name,country,lat,lng
Tokyo,Japan,35.68449,139.75021
Seoul,"Korea, South",37.55307,126.97695
London,United Kingdom,51.5072,-0.1275
Los Angeles,United States,34.05317,-118.24628
Singapore,Singapore,1.29011,103.84152
Mexico City,Mexico,19.4333,-99.1333
Paris,France,48.85604,2.34619
Hong Kong,Hong Kong,22.29745,114.17384
Jakarta,Indonesia,-6.175,106.8275
Moscow,Russia,55.7558,37.6172
Beijing,China,39.90652,116.39122
Buenos Aires,Argentina,-34.6033,-58.3817
Bangkok,Thailand,13.7525,100.4942
Shanghai,China,31.23285,121.47761
Manila,Philippines,14.5958,120.9772
Guangzhou,China,23.11638,113.24941
Chicago,United States,41.88168,-87.63738
Istanbul,Turkey,41.01515,28.96941
Berlin,Germany,52.52,13.405
Riyadh,Saudi Arabia,24.6333,46.7167
Cairo,Egypt,30.0444,31.2358
Delhi,India,28.65986,77.22232
Ōsaka,Japan,34.68967,135.50376
Mumbai,India,18.97326,72.82861
Brooklyn,United States,40.6871,-73.97952
Madrid,Spain,40.4169,-3.7033
Lima,Peru,-12.06,-77.0375
Chongqing,China,29.5637,106.5504
Kuala Lumpur,Malaysia,3.1478,101.6953
Tehran,Iran,35.6892,51.3889
Philadelphia,United States,39.95226,-75.16357
Shenzhen,China,22.5415,114.0596
Dhaka,Bangladesh,23.7639,90.3889
Miami,United States,25.77387,-80.19672
Houston,United States,29.75982,-95.36319
Atlanta,United States,33.75552,-84.39048
New York,United States,40.72345,-73.99202
Toronto,Canada,43.64512,-79.38366
Dallas,United States,32.77871,-96.79784
Chengdu,China,30.66,104.0633
Rome,Italy,41.8933,12.4828
Boston,United States,42.36096,-71.06002
Santiago,Chile,-33.4372,-70.6506
Melbourne,Australia,-37.8142,144.9631
Rio de Janeiro,Brazil,-22.9111,-43.2056
Ho Chi Minh City,Vietnam,10.7756,106.7019
Sydney,Australia,-33.8678,151.21
Kolkāta,India,22.5675,88.37
Seattle,United States,47.60531,-122.33463
Barcelona,Spain,41.3828,2.1769
San Francisco,United States,37.78835,-122.4043
Hanoi,Vietnam,21.03296,105.84619
Dubai,United Arab Emirates,25.2631,55.2972
Detroit,United States,42.3355,-83.04971
Ankara,Turkey,39.93,32.85
Xi’an,China,34.2611,108.9422
Budapest,Hungary,47.4925,19.0514
Nagoya,Japan,35.1833,136.9
Athens,Greece,37.9842,23.7281
Baghdad,Iraq,33.3153,44.3661
Hangzhou,China,30.267,120.153
Montréal,Canada,45.5089,-73.5617
Wuhan,China,30.5934,114.3046
Cape Town,South Africa,-33.9253,18.4239
Tianjin,China,39.1336,117.2054
Saint Petersburg,Russia,59.9375,30.3086
San Diego,United States,32.71879,-117.1577
Chennai,India,13.0825,80.275
Kinshasa,Congo (Kinshasa),-4.3219,15.3119
Taipei,Taiwan,25.03931,121.52077
Nanjing,China,32.0608,118.7789
Minneapolis,United States,44.97863,-93.26738
Hyderābād,India,17.3617,78.4747
Karachi,Pakistan,24.85922,67.00276
Johannesburg,South Africa,-26.2044,28.0456
Lagos,Nigeria,6.455,3.3841
Washington,United States,38.89937,-77.0336
Jeddah,Saudi Arabia,21.5433,39.1728
Denver,United States,39.74543,-104.99268
Birmingham,United Kingdom,52.48,-1.9025
Bucharest,Romania,44.4325,26.1039
Vancouver,Canada,49.281,-123.11899
Munich,Germany,48.1375,11.575
Luanda,Angola,-8.8383,13.2344
Queens,United States,40.74083,-73.87564
Dongguan,China,23.021,113.752
Kuwait City,Kuwait,29.3697,47.9783
Lahore,Pakistan,31.5497,74.3436
Busan,"Korea, South",35.15594,129.06006
Shenyang,China,41.8025,123.4281
Bangalore,India,12.9789,77.5917
Pyongyang,"Korea, North",39.0167,125.7475
Mecca,Saudi Arabia,21.4225,39.8233
Hamburg,Germany,53.55,10.0
Nairobi,Kenya,-1.2864,36.8172
Brisbane,Australia,-27.4678,153.0281
Monterrey,Mexico,25.6667,-100.3
Guadalajara,Mexico,20.6767,-103.3475
Yokohama,Japan,35.4442,139.6381
Khartoum,Sudan,15.59985,32.52865
Foshan,China,23.0214,113.1216
Stuttgart,Germany,48.7775,9.18
Ahmedabad,India,23.0225,72.5714
Kyiv,Ukraine,50.45,30.5233
Pune,India,18.5203,73.8567
Qingdao,China,36.0669,120.3827
Amman,Jordan,31.9497,35.9328
Algiers,Algeria,36.7539,3.0589
Abidjan,Côte d’Ivoire,5.33132,-4.02194
Harbin,China,45.7576,126.6409
Quanzhou,China,24.8744,118.6757
Dalian,China,38.91624,121.60895
Suzhou,China,33.6333,116.9683
Suzhou,China,31.3,120.6194
Tashkent,Uzbekistan,41.3111,69.2797
Alexandria,Egypt,31.1975,29.8925
Zhanjiang,China,21.2701,110.3575
Phoenix,United States,33.44822,-112.07608
Linyi,China,35.1038,118.3564
Zhengzhou,China,34.764,113.684
São Paulo,Brazil,-23.55,-46.6333
Incheon,"Korea, South",37.4833,126.6333
Belo Horizonte,Brazil,-19.9167,-43.9333
Suzhou,China,33.6333,116.9683
Suzhou,China,31.3,120.6194
Guatemala City,Guatemala,14.6133,-90.5353
La Paz,Bolivia,-16.4958,-68.1333
Baoding,China,38.874,115.464
Beirut,Lebanon,33.8983,35.5057
Surabaya,Indonesia,-7.2458,112.7378
Kunming,China,25.0464,102.7094
Changsha,China,22.3773,112.6982
Changsha,China,28.228,112.939
Dar es Salaam,Tanzania,-6.8161,39.2803
Sapporo,Japan,43.0619,141.3544
Jinan,China,36.6702,117.0207
Casablanca,Morocco,33.5333,-7.5833
Guilin,China,25.275,110.296
Addis Ababa,Ethiopia,9.03,38.74
Changchun,China,43.897,125.326
Xiamen,China,24.4796,118.0889
Sūrat,India,21.1702,72.8311
Kaohsiung,Taiwan,22.615,120.2975
Abuja,Nigeria,9.0667,7.4833
Birmingham,United States,33.5279,-86.7971
Damascus,Syria,33.5131,36.2919
Daegu,"Korea, South",35.8717,128.6017
Ningbo,China,29.8603,121.6245
Fuzhou,China,27.949,116.358
Fuzhou,China,26.0743,119.2964
Bogotá,Colombia,4.7111,-74.0722
Kabul,Afghanistan,34.5253,69.1783
Ganzhou,China,25.831,114.933
Giza,Egypt,29.987,31.2118
Bursa,Turkey,40.1833,29.05
Fortaleza,Brazil,-3.7275,-38.5275
Taichung,Taiwan,24.1439,120.6794
Fuzhou,China,26.0743,119.2964
Fuzhou,China,27.949,116.358
Hefei,China,31.8206,117.2273
London,Canada,42.9836,-81.2497
Accra,Ghana,5.55,-0.2
Pudong,China,31.2347,121.5064
Lucknow,India,26.85,80.95
Shantou,China,23.354,116.682
Quezon City,Philippines,14.65,121.0475
Shangqiu,China,34.415,115.656
Shijiazhuang,China,38.0425,114.51
Hohhot,China,40.842,111.749
Bamako,Mali,12.6392,-8.0028
Jaipur,India,26.9,75.8
Yangzhou,China,32.3912,119.4363
Taiyuan,China,37.8704,112.5497
Nanning,China,22.8167,108.3275
Luoyang,China,34.6197,112.4539
Jining,China,35.4151,116.5871
Jining,China,41.03,113.08
Wenzhou,China,27.9938,120.6993
Tampa,United States,27.95169,-82.45732
Tilburg,Netherlands,51.55,5.0833
Xiangyang,China,32.01,112.122
Xiangyang,China,34.2995,108.4905
Rizhao,China,35.417,119.527
Yancheng,China,33.3482,120.1626
Lanzhou,China,36.0606,103.8268
Jiangmen,China,22.5789,113.0815
Nanyang,China,32.9987,112.5292
Xianyang,China,34.3299,108.7088
Nanchang,China,28.683,115.858
Jieyang,China,23.551,116.3727
Mogadishu,Somalia,2.0392,45.3419
Gwangju,"Korea, South",37.3667,127.2833
Gwangju,"Korea, South",35.1653,126.8486
Zhangzhou,China,24.513,117.647
Wuxi,China,26.58,111.841
Wuxi,China,31.491,120.312
Jilin,China,43.8519,126.5481
Tongshan,China,34.204,117.284
Zhoukou,China,33.625,114.6418
Cangzhou,China,38.3047,116.8387
Mashhad,Iran,36.3264,59.5433
Zunyi,China,27.722,107.031
Heze,China,35.2343,115.4796
Guayaquil,Ecuador,-2.19,-79.8875
Cali,Colombia,3.4206,-76.5222
Sanaa,Yemen,15.3483,44.2064
Hengyang,China,26.894,112.572
Santiago,Dominican Republic,19.4572,-70.6889
Qiqihar,China,47.3549,123.9182
Guiyang,China,26.647,106.63
Douala,Cameroon,4.05,9.7
Medan,Indonesia,3.5894,98.6739
Zhangjiakou,China,40.769,114.886
Fuyang,China,32.89,115.814
Fuyang,China,30.0553,119.95
Rangoon,Burma,16.795,96.16
Haikou,China,20.0186,110.3488
Vienna,Austria,48.2083,16.3725
Changzhou,China,31.811,119.974
Sacramento,United States,38.5677,-121.4685
Langfang,China,39.5383,116.6835
Stockholm,Sweden,59.3294,18.0686
Jiujiang,China,29.661,115.954
Xinyang,China,32.149,114.091
Changde,China,29.031,111.699
Staten Island,United States,40.5834,-74.1496
Ouagadougou,Burkina Faso,12.3686,-1.5275
Kanpur,India,26.4499,80.3319
Maoming,China,21.6627,110.9255
Liuzhou,China,24.3264,109.4281
Zhuhai,China,22.2716,113.5769
Zhongshan,China,22.517,113.3925
Xingtai,China,37.0717,114.5048
Shaoyang,China,32.912,119.8526
Shaoyang,China,27.2395,111.4679
Mianyang,China,31.468,104.679
Meizhou,China,24.289,116.122
Zhumadian,China,33.014,114.022
Tai’an,China,36.202,117.087
Shangrao,China,28.4551,117.9431
Buffalo,United States,42.9018,-78.8487
Chaozhou,China,23.658,116.622
Bijie,China,27.284,105.292
Lusaka,Zambia,-15.4167,28.2833
Xining,China,36.6224,101.7804
Santa Cruz de la Sierra,Bolivia,-17.7892,-63.1975
Nāgpur,India,21.1497,79.0806
Zhaoqing,China,23.05,112.4667
Wuhu,China,31.3526,118.4331
Luzhou,China,28.871,105.442
Tangshan,China,39.6294,118.1739
Sendai,Japan,38.2682,140.8694
Baotou,China,40.6213,109.9532
Honolulu,United States,21.3294,-157.846
Chifeng,China,42.257,118.888
Liaocheng,China,36.4559,115.9852
Dublin,Ireland,53.35,-6.2603
Dezhou,China,37.436,116.359
Anshan,China,41.108,122.994
Huanggang,China,30.4537,114.8724
Yulin,China,22.654,110.181
Yongzhou,China,26.42,111.613
Nanchong,China,30.8372,106.1106
Qujing,China,25.491,103.796
Anqing,China,30.5318,117.1153
Nangandao,China,35.3036,113.9268
Yibin,China,28.752,104.643
San Juan,Puerto Rico,18.3985,-66.061
Amsterdam,Netherlands,52.3728,4.8936
Weihai,China,37.5133,122.1205
Bozhou,China,33.8626,115.7742
Yantai,China,37.4646,121.4478
Huizhou,China,23.112,114.416
Batman,Turkey,37.887,41.132
Nicosia,Cyprus,35.1725,33.365
Dazhou,China,31.2093,107.4678
Zhenjiang,China,32.188,119.424
Zhaotong,China,27.338,103.717
Copenhagen,Denmark,55.6761,12.5683
Kumasi,Ghana,6.7,-1.625
Faisalabad,Pakistan,31.4167,73.0911
Skopje,North Macedonia,41.9961,21.4317
Shiyan,China,32.629,110.7987
Brasília,Brazil,-15.7939,-47.8828
Leshan,China,29.552,103.766
Abu Dhabi,United Arab Emirates,24.4667,54.3667
Putian,China,25.4526,119.0078
Yichun,China,47.728,128.841
Yichun,China,27.816,114.417
Suqian,China,33.9331,118.2831
Shaoxing,China,30.0511,120.5833
Qinhuangdao,China,39.8882,119.5202
Ibadan,Nigeria,7.3964,3.9167
Chenzhou,China,25.77,113.016
Ji’an,China,27.0912,114.9668
Pingdingshan,China,33.735,113.2999
Ghāziābād,India,28.67,77.42
Riverside,United States,33.9381,-117.3949
Qingyuan,China,23.682,113.056
Yuncheng,China,35.0267,111.007
Hanzhong,China,33.0664,107.0232
Handan,China,36.601,114.487
Ürümqi,China,43.8225,87.6125
Huanglongsi,China,34.795,114.345
Warsaw,Poland,52.23,21.0111
Doha,Qatar,25.2867,51.5333
Weinan,China,34.5206,109.471
Helsinki,Finland,60.1708,24.9375
Las Vegas,United States,36.2333,-115.2654
İzmir,Turkey,38.42,27.14
Baltimore,United States,39.3051,-76.6144
Xinpu,China,34.5966,119.2214
Huaihua,China,27.5698,110.0016
Zhuzhou,China,27.829,113.133
Taizhou,China,32.4567,119.9229
Taizhou,China,28.6557,121.4208
Oslo,Norway,59.9133,10.7389
St. Louis,United States,38.6359,-90.2451
Yiyang,China,28.5549,112.356
Yiyang,China,26.4221,112.3999
Brussels,Belgium,50.8467,4.3525
Lu’an,China,31.736,116.52
Portland,United States,45.5371,-122.65
Portland,United States,43.6773,-70.2715
Jiangguanchi,China,34.0244,113.8201
Montevideo,Uruguay,-34.8836,-56.1819
Guigang,China,23.112,109.599
San Antonio,United States,29.4632,-98.5238
Xiaoganzhan,China,30.918,113.957
Vancouver,United States,45.6366,-122.5967
Hengshui,China,37.739,115.669
Linfen,China,36.088,111.519
Ningde,China,26.6662,119.5477
Perth,Australia,-31.9559,115.8606
Xiaoxita,China,30.692,111.287
Austin,United States,30.3005,-97.7522
Chuzhou,China,32.256,118.333
Weifang,China,36.708,119.162
Orlando,United States,28.4773,-81.337
Loudi,China,27.6998,111.9944
Binzhou,China,37.383,117.971
Zibo,China,36.8138,118.055
Shaoguan,China,24.811,113.597
Prague,Czechia,50.0875,14.4214
Wuzhou,China,23.4767,111.279
Longyan,China,25.076,117.017
Daqing,China,46.589,125.104
Los Ángeles,Chile,-37.4667,-72.35
Huai’an,China,33.551,119.113
Suihua,China,46.654,126.969
Ottawa,Canada,45.4247,-75.695
Malang,Indonesia,-7.98,112.62
Zaozhuang,China,34.8109,117.3238
San Jose,United States,37.3012,-121.848
Neijiang,China,29.5802,105.058
Kowloon,Hong Kong,22.3167,114.1833
Goyang,"Korea, South",37.65,126.8
Baicheng,China,23.903,106.619
Baicheng,China,45.62,122.838
Havana,Cuba,23.1367,-82.3589
Pittsburgh,United States,40.4397,-79.9763
Mirzāpur,India,25.146,82.569
Chattogram,Bangladesh,22.335,91.8325
Tongliao,China,43.654,122.243
Yulinshi,China,38.2858,109.7341
Bengbu,China,32.917,117.389
Indianapolis,United States,39.7771,-86.1458
Baku,Azerbaijan,40.3953,49.8822
Puyang,China,35.7627,115.0292
Jiaozuo,China,35.2157,113.2419
Barcelona,Venezuela,10.1403,-64.6833
Jinzhou,China,41.129,121.148
Manhattan,United States,40.7834,-73.9662
Cincinnati,United States,39.1413,-84.506
Kansas City,United States,39.1235,-94.7443
Kansas City,United States,39.1238,-94.5541
San José,Costa Rica,9.9325,-84.08
Cleveland,United States,41.4764,-81.6805
Panama City,Panama,8.9833,-79.5167
Sofia,Bulgaria,42.7,23.33
Deyang,China,31.127,104.398
Hechi,China,24.693,108.085
Nanping,China,26.6418,118.1774
Muscat,Oman,23.6139,58.5922
Baojishi,China,34.363,107.238
Minsk,Belarus,53.9,27.5667
Qinzhou,China,21.981,108.654
Bekasi,Indonesia,-6.2349,106.9923
Columbus,United States,32.51,-84.8771
Columbus,United States,39.9862,-82.9855
Jerusalem,Israel,31.7789,35.2256
Bazhou,China,31.868,106.748
Bazhou,China,39.1333,116.3833
Fukuoka,Japan,33.59,130.4017
Suining,China,30.533,105.593
Shanwei,China,22.7872,115.3756
Guang’an,China,30.4564,106.6326
Changzhi,China,36.195,113.117
Tongren,China,27.7316,109.1895
Monrovia,Liberia,6.3133,-10.8014
Bronx,United States,40.8501,-73.8662
Lishui,China,28.468,119.923
Xinzhou,China,38.416,112.734
Huainan,China,32.6314,117.0194
Xiangtan,China,27.8313,112.9454
Jiamusi,China,46.8,130.319
Virginia Beach,United States,36.7335,-76.0435
Colombo,Sri Lanka,6.9344,79.8428
Charlotte,United States,35.2083,-80.8303
Qincheng,China,34.5809,105.7311
Meishan,China,34.1736,112.839
Meishan,China,30.0771,103.8484
Chaoyang,China,41.571,120.453
Heyuan,China,23.7443,114.7002
Caracas,Venezuela,10.4806,-66.9036
Changsha,China,28.228,112.939
Changsha,China,22.3773,112.6982
Alexandria,United States,38.8185,-77.0861
Athens,United States,33.9508,-83.3689
Omaha,United States,41.2627,-96.0529
Quito,Ecuador,-0.22,-78.5125
Milwaukee,United States,43.0642,-87.9675
Providence,United States,41.823,-71.4187
Jacksonville,United States,30.3322,-81.6749
Kōchi,Japan,33.5589,133.5314
Kōchi,Japan,33.5589,133.5314
Tainan,Taiwan,22.9833,120.1833
Ankang,China,32.6854,109.029
Yangjiang,China,21.857,111.983
Sanming,China,26.2634,117.6389
Gulou,China,26.0865,119.298
Zigong,China,29.339,104.779
Luohe,China,33.583,114.0109
Dingxi,China,35.608,104.592
Xuanzhou,China,30.939,118.759
Guangyuan,China,32.436,105.844
Nantes,France,47.2181,-1.5528
Huangshi,China,30.2011,115.039
Omdurman,Sudan,15.65,32.4833
Nashville,United States,36.1715,-86.7842
Salt Lake City,United States,40.7776,-111.9311
Adelaide,Australia,-34.9275,138.6
Raleigh,United States,35.8324,-78.6429
Tel Aviv-Yafo,Israel,32.08,34.78
Huludao,China,40.711,120.837
Baoshan,China,25.112,99.161
Lianshan,China,40.7523,120.828
Belgrade,Serbia,44.82,20.46
Longba,China,33.3702,104.9603
Tampere,Finland,61.4981,23.76
Wuxi,China,31.491,120.312
Wuxi,China,26.58,111.841
Konya,Turkey,37.8667,32.4833
Tieling,China,42.2237,123.726
Yunfu,China,22.9152,112.0445
Valencia,Spain,39.47,-0.3764
Anshun,China,26.2531,105.9476
Yingkou,China,40.625,122.219
Zhongli,Taiwan,24.965,121.2168
Yanjiang,China,30.129,104.627
Riga,Latvia,56.9489,24.1064
Calgary,Canada,51.05,-114.0667
Mudanjiang,China,44.5514,129.6329
Yan’an,China,36.65,109.494
Jincheng,China,35.491,112.852
Auckland,New Zealand,-36.8406,174.74
Nantong,China,31.981,120.894
Lincang,China,23.884,100.089
Yuxi,China,24.347,102.527
Richmond,United States,37.5295,-77.4756
Laibin,China,23.7501,109.2212
Phnom Penh,Cambodia,11.5694,104.9211
Astana,Kazakhstan,51.1472,71.4222
Yaoundé,Cameroon,3.8667,11.5167
Daejeon,"Korea, South",36.35,127.385
Harare,Zimbabwe,-17.8292,31.0522
Shengli,China,37.434,118.6746
Kawasaki,Japan,35.5167,139.7
Dandong,China,40.1167,124.3833
Salvador,Brazil,-12.9747,-38.4767
Qinbaling,China,35.7278,107.64
Kōbe,Japan,34.69,135.1956
Memphis,United States,35.1087,-89.9663
Gaoping,China,35.798,112.924
Gaoping,China,30.7824,106.1281
Taizhou,China,28.6557,121.4208
Taizhou,China,32.4567,119.9229
Ma’anshan,China,31.669,118.507
Córdoba,Argentina,-31.4167,-64.1833
Ulaanbaatar,Mongolia,47.9203,106.9172
Sharjah,United Arab Emirates,25.3575,55.3908
Puning,China,23.298,116.166
Huaibei,China,33.956,116.798
Milan,Italy,45.4669,9.19
The Hague,Netherlands,52.08,4.31
Chongzuo,China,22.377,107.365
Oklahoma City,United States,35.4676,-97.5136
Yushan,China,31.322,120.985
Kyōto,Japan,35.0117,135.7683
Santo Domingo,Dominican Republic,18.4667,-69.95
Medina,Saudi Arabia,24.47,39.61
Lublin,Poland,51.25,22.5667
Hezhou,China,24.4042,111.5672
Kochi,India,9.9312,76.2673
Kochi,India,9.9312,76.2673
Pingliang,China,35.5424,106.6649
Qingyang,China,24.7816,118.5517
Sakai,Japan,34.5733,135.4831
Medellín,Colombia,6.2308,-75.5906
Tijuana,Mexico,32.525,-117.0333
Hartford,United States,41.7661,-72.6834
Shangzhou,China,33.868,109.9244
Masqaţ,Oman,23.5889,58.4083
Sanmenxia,China,34.7732,111.2004
Baicheng,China,45.62,122.838
Baicheng,China,23.903,106.619
Edmonton,Canada,53.5344,-113.4903
Louisville,United States,38.1663,-85.6485
Ecatepec,Mexico,19.6097,-99.06
Vilnius,Lithuania,54.6872,25.28
Almaty,Kazakhstan,43.24,76.915
Tegucigalpa,Honduras,14.1058,-87.2047
New Orleans,United States,30.0687,-89.9288
Mersin,Turkey,36.8,34.6333
Zagreb,Croatia,45.8131,15.9775
Fort Worth,United States,32.7817,-97.3474
Pingxiang,China,27.659,113.887
Tbilisi,Georgia,41.7225,44.7925
Cologne,Germany,50.9364,6.9528
Gwangju,"Korea, South",37.3667,127.2833
Gwangju,"Korea, South",35.1653,126.8486
Bridgeport,United States,41.1918,-73.1954
Yinchuan,China,38.485,106.225
Adana,Turkey,37.0,35.3213
Saitama,Japan,35.8614,139.6456
Xiping,China,25.6005,103.8166
Xiping,China,40.082,113.2981
Manaus,Brazil,-3.1189,-60.0217
Jixi,China,45.295,130.969
Fushun,China,41.881,123.957
Diyarbakır,Turkey,37.91,40.24
Beihai,China,21.481,109.12
Suwon,"Korea, South",37.2667,127.0167
Tucson,United States,32.1541,-110.8787
Fuxin,China,42.022,121.67
Wuwei,China,37.929,102.638
Siping,China,43.1668,124.3506
El Paso,United States,31.8476,-106.43
Yerevan,Armenia,40.1814,44.5144
Tripoli,Libya,32.8872,13.1914
Brazzaville,Congo (Brazzaville),-4.2694,15.2711
Shuyangzha,China,34.1299,118.7734
Porto,Portugal,41.1621,-8.622
Manama,Bahrain,26.225,50.5775
Tallinn,Estonia,59.4372,24.7453
Ulsan,"Korea, South",35.55,129.3167
Khowrhesht,Iran,36.205,49.6872
Shuozhou,China,39.3317,112.4329
Santos,Brazil,-23.9369,-46.325
Hiroshima,Japan,34.3914,132.4519
Novosibirsk,Russia,55.05,82.95
Boankra,Ghana,6.6944,-1.4028
Sanzhou,China,30.82,108.4
Changshu,China,31.656,120.753
Heihe,China,50.2401,127.521
McAllen,United States,26.2252,-98.2467
Ximeicun,China,24.9612,118.3849
Hempstead,United States,40.6629,-73.6089
Bordeaux,France,44.84,-0.58
Sevilla,Spain,37.39,-5.99
León de los Aldama,Mexico,21.1167,-101.6833
Jingdezhen,China,29.2917,117.1986
Puebla,Mexico,19.0333,-98.1833
Albuquerque,United States,35.1054,-106.6465
Tongjin,"Korea, South",37.2333,127.2
Liaoyang,China,41.279,123.176
Chengtangcun,China,35.0833,117.15
Curitiba,Brazil,-25.4297,-49.2711
Bekasi Kota,Indonesia,-6.2333,107.0
Jiangyin,China,31.839,120.295
Ashgabat,Turkmenistan,37.9375,58.38
Vaughan,Canada,43.8333,-79.5
Hebi,China,35.748,114.297
Huzhou,China,30.8925,120.0875
Mbuji-Mayi,Congo (Kinshasa),-6.15,23.6
Valletta,Malta,35.8983,14.5125
Yekaterinburg,Russia,56.8356,60.6128
Tulsa,United States,36.1283,-95.9042
Eşfahān,Iran,32.6447,51.6675
Fresno,United States,36.783,-119.7939
Jiaxing,China,30.747,120.756
Zhangjiajie,China,29.117,110.479
Zapopan,Mexico,20.7167,-103.4
Baiyin,China,36.5451,104.1389
Guiping,China,23.4,110.0833
Lianjiang,China,21.7333,110.2833
Changwon,"Korea, South",35.2708,128.6631
Jianguang,China,28.1958,115.7833
Yucheng,China,36.934,116.638
Yucheng,China,30.01,103.0415
Lisbon,Portugal,38.7253,-9.15
Tangerang,Indonesia,-6.1703,106.6403
Guadalajara,Spain,40.6337,-3.1674
Xushan,China,30.1667,121.2333
Leizhou,China,20.9143,110.0967
Kayseri,Turkey,38.7225,35.4875
Portsmouth,United Kingdom,50.8058,-1.0872
Southampton,United Kingdom,50.9025,-1.4042
Charleston,United States,38.3484,-81.6322
Charleston,United States,32.8168,-79.9687
Samsun,Turkey,41.2903,36.3336
Huazhou,China,32.688,112.087
Huazhou,China,21.664,110.6396
Rochester,United States,43.168,-77.6162
Rochester,United States,44.0154,-92.478
Jinhua,China,29.079,119.647
Conakry,Guinea,9.5092,-13.7122
Pizhou,China,34.398,117.89
Yangshe,China,31.8767,120.556
Canberra,Australia,-35.2931,149.1269
Marseille,France,43.2964,5.37
Málaga,Spain,36.7194,-4.42
Depok,Indonesia,-6.394,106.8225
Rui’an,China,27.7833,120.625
Naples,Italy,40.8333,14.25
Wenling,China,28.3667,121.3667
Gaozhou,China,21.9244,110.8422
Hwasu-dong,"Korea, South",37.1997,126.8314
Dayton,United States,39.7805,-84.2003
Chiba,Japan,35.6073,140.1064
La Paz,Mexico,24.1422,-110.3108
Gāzipura,Bangladesh,23.9889,90.375
Fuqing,China,25.7167,119.3833
Haiphong,Vietnam,20.8651,106.6838
Wuzhong,China,37.9978,106.1986
Pingdu,China,36.7769,119.9884
Frankfurt,Germany,50.1106,8.6822
Leeds,United Kingdom,53.7975,-1.5436
Sŏngnam,"Korea, South",37.4333,127.15
Cape Coral,United States,26.6443,-81.9957
Yangquan,China,37.8571,113.5804
Yutan,China,28.278,112.552
Toledo,United States,41.6638,-83.5827
Juárez,Mexico,31.745,-106.485
Karaj,Iran,35.8272,50.9489
Shaoyang,China,32.912,119.8526
Shaoyang,China,27.2395,111.4679
Mission Viejo,United States,33.6096,-117.6551
Recife,Brazil,-8.05,-34.9
Setagaya,Japan,35.6466,139.6532
Balıkesir,Turkey,39.6333,27.8833
Chizhou,China,30.6654,117.4916
Colorado Springs,United States,38.8674,-104.7605
Kotla Qasim Khan,Pakistan,32.5833,73.75
Kitakyūshū,Japan,33.8833,130.8833
Liangshi,China,27.26,111.7442
Ad Dammām,Saudi Arabia,26.4333,50.1
Baton Rouge,United States,30.442,-91.1311
Winnipeg,Canada,49.8844,-97.1464
Huangshan,China,29.7149,118.3376
Benxi,China,41.4868,123.685
Kazan,Russia,55.7964,49.1089
Xintai,China,35.909,117.768
Allentown,United States,40.5961,-75.4756
Libreville,Gabon,0.3903,9.4542
Turin,Italy,45.0792,7.6761
Wusong,China,30.9333,117.7667
Mosul,Iraq,36.34,43.13
Tabūk,Saudi Arabia,28.3972,36.5789
Al ‘Ayn,United Arab Emirates,24.2075,55.7447
Ogden,United States,41.2279,-111.9682
Yushu,China,44.826,126.55
Kuaidamao,China,41.7283,125.9397
Huazhou,China,21.664,110.6396
Huazhou,China,32.688,112.087
Nizhniy Novgorod,Russia,56.3269,44.0075
Rosario,Argentina,-32.9575,-60.6394
Goiânia,Brazil,-16.6667,-49.25
Provo,United States,40.2457,-111.6457
Zamboanga City,Philippines,6.9042,122.0761
Baishan,China,41.944,126.4147
Haicheng,China,40.8824,122.6852
Knoxville,United States,35.9692,-83.9496
Quebec City,Canada,46.8139,-71.2081
Yicheng,China,31.721,112.257
Yicheng,China,31.36,119.815
Dakar,Senegal,14.6928,-17.4467
Antananarivo,Madagascar,-18.91,47.525
Hamilton,Canada,43.2567,-79.8692
Grand Rapids,United States,42.9619,-85.6562
Rotterdam,Netherlands,51.92,4.48
Cheongju,"Korea, South",36.6333,127.4833
Nottingham,United Kingdom,52.9561,-1.1512
Rucheng,China,32.246,120.591
Columbia,United States,38.9472,-92.3268
Columbia,United States,34.0378,-80.9036
Huaiyin,China,33.5819,119.028
Mississauga,Canada,43.6,-79.65
Dayan,China,26.8552,100.2259
Chelyabinsk,Russia,55.1547,61.3758
Laiwu,China,36.1833,117.6667
Jingling,China,30.664,113.167
Bratislava,Slovakia,48.1439,17.1097
Yongcheng,China,33.9299,116.45
Finglas,Ireland,53.4597,-6.2181
Albany,United States,42.6664,-73.7987
Yiwu,China,29.3069,120.0753
Bristol,United Kingdom,51.4536,-2.5975
Kampala,Uganda,0.3136,32.5811
Omsk,Russia,54.9833,73.3667
Beidao,China,34.602,105.918
Yanbu,Saudi Arabia,24.0883,38.0582
Samara,Russia,53.2028,50.1408
Xiangshui,China,26.5964,104.8314
Ar Rayyān,Qatar,25.25,51.4
Playa del Carmen,Mexico,20.6281,-87.0755
Dadukou,China,26.5824,101.7184
Shymkent,Kazakhstan,42.3167,69.5958
Lingcheng,China,22.7,110.35
Shuangyashan,China,46.6762,131.1416
Porto Alegre,Brazil,-30.0331,-51.23
Xinyu,China,27.8186,114.9167
Santa Cruz,Bolivia,-17.8,-63.1833
Zhangye,China,38.9248,100.4499
Bakersfield,United States,35.3529,-119.0359
Guarulhos,Brazil,-23.4628,-46.5328
Rostov,Russia,47.2225,39.71
Rongcheng,China,29.8402,112.9048
Rongcheng,China,26.218,104.103
New Haven,United States,41.3113,-72.9246
Belém,Brazil,-1.4558,-48.5039
Supaul,India,26.126,86.605
Liaoyuan,China,42.888,125.1447
Guankou,China,30.988,103.647
Guankou,China,28.1637,113.6433
Ufa,Russia,54.7261,55.9475
San Diego,Venezuela,10.254,-68.0109
Bucheon,"Korea, South",37.5,126.7833
Lianyuan,China,27.692,111.664
Rongcheng,China,26.218,104.103
Rongcheng,China,29.8402,112.9048
Kaiyuan,China,36.0193,113.86
Kaiyuan,China,42.546,124.038
Kaiyuan,China,23.7111,103.2461
Zhuji,China,29.7167,120.2333
Yingtan,China,28.2721,117.0395
Brampton,Canada,43.6833,-79.7667
Leiyang,China,26.4223,112.8598
Des Moines,United States,41.5725,-93.6105
Şalālah,Oman,17.0197,54.0897
Yichun,China,47.728,128.841
Yichun,China,27.816,114.417
Bilbao,Spain,43.2569,-2.9236
Gold Coast,Australia,-28.0167,153.4
Guyuan,China,36.01,106.257
Xiantao,China,30.328,113.443
Akron,United States,41.0798,-81.5219
Managua,Nicaragua,12.1364,-86.2514
Krasnoyarsk,Russia,56.0089,92.8719
Bishkek,Kyrgyzstan,42.8747,74.6122
Yingchuan,China,34.1511,113.4733
Mexicali,Mexico,32.6633,-115.4678
Niigata,Japan,37.9161,139.0364
Hamamatsu,Japan,34.7108,137.7275
Sha Tin,Hong Kong,22.3802,114.1898
Chisinau,Moldova,47.0228,28.8353
Palm Bay,United States,27.9631,-80.6593
Düsseldorf,Germany,51.2333,6.7833
Macau,Macau,22.2006,113.5461
Concord,United States,35.3933,-80.6369
Concord,United States,37.9722,-122.0016
Nezahualcóyotl,Mexico,19.4081,-99.0186
Denizli,Turkey,37.7833,29.0964
Ciudad Nezahualcóyotl,Mexico,19.4006,-99.0148
Voronezh,Russia,51.6717,39.2106
Dongtai,China,32.795,120.519
Pretoria,South Africa,-25.7461,28.1881
Davao,Philippines,7.07,125.6
Perm,Russia,58.0,56.3167
Campinas,Brazil,-22.9058,-47.0608
Dingzhou,China,38.516,114.99
Xibeijie,China,39.7334,98.4943
Leipzig,Germany,51.34,12.375
Yuyao,China,30.05,121.15
Yanggok,"Korea, South",37.6333,127.2167
Hanchuan,China,30.652,113.8274
Gongzhuling,China,43.5053,124.8224
Glasgow,United Kingdom,55.8611,-4.25
Vadodara,India,22.3,73.2
Semarang,Indonesia,-6.99,110.4225
Gothenburg,Sweden,57.7075,11.9675
Kuching,Malaysia,1.5575,110.3439
Zhufeng,China,36.0,119.4167
Ezhou,China,30.3914,114.8949
Rājkot,India,22.3,70.7833
Kigali,Rwanda,-1.9439,30.0594
Barranquilla,Colombia,10.9833,-74.8019
Xiashi,China,30.5333,120.6833
Nerima,Japan,35.7356,139.6517
Vishākhapatnam,India,17.7042,83.2978
Shīrāz,Iran,29.61,52.5425
Tabrīz,Iran,38.0814,46.3006
Ōta-ku,Japan,35.5614,139.7161
Zhongwei,China,37.5002,105.1968
Wichita,United States,37.6895,-97.3443
Mizhou,China,35.99,119.3801
Xishan,China,27.6461,113.497
Hegang,China,47.3501,130.298
Kumamoto,Japan,32.8031,130.7078
Dortmund,Germany,51.5139,7.4653
Mesa,United States,33.4015,-111.7178
Indore,India,22.7167,75.8472
Haifa,Israel,32.8192,34.9992
Volgograd,Russia,48.7086,44.5147
Fangchenggang,China,21.6867,108.3547
Jiancheng,China,30.3931,104.5465
Harrisburg,United States,40.2752,-76.8843
Essen,Germany,51.4508,7.0131
Shouguang,China,36.857,118.791
Morelia,Mexico,19.7683,-101.1894
Kraków,Poland,50.0614,19.9372
Sagamihara,Japan,35.5667,139.3667
Palembang,Indonesia,-2.9861,104.7556
Asahikawa,Japan,43.7667,142.3667
Nouakchott,Mauritania,18.0858,-15.9785
Sanya,China,18.2533,109.5036
Wutong,China,30.6333,120.5333
Okayama,Japan,34.65,133.9167
Linhai,China,28.85,121.1167
Thessaloníki,Greece,40.6403,22.9347
Caloocan City,Philippines,14.65,120.97
Wafangdian,China,39.6271,121.9796
Zhongxiang,China,31.169,112.5853
Brookhaven,United States,40.832,-72.9517
Xiangyang,China,32.01,112.122
Xiangyang,China,34.2995,108.4905
Worcester,United States,42.2705,-71.8079
Zürich,Switzerland,47.3744,8.5411
Xinyi,China,22.3549,110.9468
Bremen,Germany,53.0758,8.8072
Çankaya,Turkey,39.9244,32.8856
Zaragoza,Spain,41.65,-0.8833
Keçiören,Turkey,40.0,32.8667
Zaoyang,China,32.129,112.772
Xingyi,China,25.092,104.8955
Shuizhai,China,33.4433,114.8994
Dresden,Germany,51.05,13.74
Surrey,Canada,49.19,-122.8489
Edogawa,Japan,35.7,139.8833
Thāne,India,19.1972,72.9722
Murcia,Spain,37.9861,-1.1303
Xingcheng,China,40.6167,120.7333
Xingcheng,China,24.1347,115.73
Krasnodar,Russia,45.0333,38.9667
Taixing,China,32.159,120.029
Kharkiv,Ukraine,49.9925,36.2311
Xinhualu,China,34.3964,113.7402
Yingcheng,China,24.21,113.401
Luocheng,China,22.7689,111.5697
Luocheng,China,30.99,104.25
Palermo,Italy,38.1111,13.3517
Maracaibo,Venezuela,10.6333,-71.6333
Shizuoka,Japan,34.9756,138.3828
Bissau,Guinea-Bissau,11.85,-15.5667
Adachi,Japan,35.7833,139.8
Ansan,"Korea, South",37.3167,126.8333
Al Hufūf,Saudi Arabia,25.3833,49.5833
Ch’ŏnan,"Korea, South",36.81,127.1475
Huilong,China,31.87,121.703
Wuchuan,China,21.441,110.779
Al Başrah,Iraq,30.515,47.81
Hannover,Germany,52.3667,9.7167
Long Beach,United States,33.7977,-118.167
Port St. Lucie,United States,27.2796,-80.3884
Little Rock,United States,34.7256,-92.3577
Kota Bharu,Malaysia,6.1333,102.25
Reno,United States,39.5497,-119.8483
Aguascalientes,Mexico,21.876,-102.296
Osmangazi,Turkey,40.1983,29.06
Esenyurt,Turkey,41.0342,28.68
Antwerp,Belgium,51.2178,4.4003
Spokane,United States,47.6671,-117.433
Nada,China,19.5209,109.5808
Taishan,China,22.2486,112.785
Manchester,United Kingdom,53.479,-2.2452
Port-au-Prince,Haiti,18.5333,-72.3333
Bhopāl,India,23.2599,77.4126
Anqiu,China,36.478,119.219
Feicheng,China,36.1861,116.7719
Madison,United States,43.0822,-89.393
Chiang Mai,Thailand,18.7953,98.9986
Boise,United States,43.6005,-116.2308
Bonita Springs,United States,26.3558,-81.7859
Soweto,South Africa,-26.2678,27.8585
Las Palmas,Spain,28.1258,-15.4353
Valencia,Venezuela,10.1833,-68.0
São Luís,Brazil,-2.5283,-44.3044
Meishan,China,30.0771,103.8484
Meishan,China,34.1736,112.839
Antofagasta,Chile,-23.65,-70.4
Eskişehir,Turkey,39.7767,30.5206
Kingston,Jamaica,17.9714,-76.7931
Naucalpan de Juárez,Mexico,19.4753,-99.2378
Nay Pyi Taw,Burma,19.7475,96.115
Nuremberg,Germany,49.4539,11.0775
Santiago del Estero,Argentina,-27.7833,-64.2667
Sangereng,Indonesia,-6.2889,106.7181
Taihe,China,30.8706,105.3784
Al Qaţīf,Saudi Arabia,26.556,49.996
Honchō,Japan,35.6946,139.9826
Xin’an,China,34.286,118.355
Taihecun,China,45.771,131.003
Belgorod,Russia,50.6,36.6
Kashgar,China,39.4681,75.9938
Denton,United States,33.2175,-97.1418
Kitchener,Canada,43.4186,-80.4728
Oakland,United States,37.7904,-122.2166
Springfield,United States,37.1943,-93.2916
Springfield,United States,39.7709,-89.654
Springfield,United States,42.1155,-72.5395
Augusta,United States,33.3645,-82.0708
Mérida,Mexico,20.97,-89.62
Qingzhou,China,36.6853,118.4796
Pimpri-Chinchwad,India,18.6186,73.8037
Cancún,Mexico,21.1606,-86.8475
Vientiane,Laos,17.98,102.63
Daye,China,30.0961,114.9804
Hengzhou,China,22.6799,109.2614
Zhuanghe,China,39.681,122.967
Bamenda,Cameroon,5.9614,10.1517
Kissimmee,United States,28.3041,-81.4169
Seberang Jaya,Malaysia,5.4083,100.3695
Quzhou,China,28.9702,118.8593
Sheffield,United Kingdom,53.3808,-1.4703
Chihuahua,Mexico,28.6369,-106.0769
Jiaozhou,China,36.2647,120.0334
Makassar,Indonesia,-5.1619,119.4362
Wuchang,China,44.924,127.158
Winston-Salem,United States,36.1029,-80.261
Tyumen,Russia,57.15,65.5333
Liverpool,United Kingdom,53.4094,-2.9785
Duisburg,Germany,51.4347,6.7625
Yangchun,China,22.1704,111.7916
Patna,India,25.594,85.1376
Dengtalu,China,36.1386,114.1066
Saltillo,Mexico,25.4231,-100.9919
Leicester,United Kingdom,52.6344,-1.1319
Natal,Brazil,-6.9838,-60.2699
Natal,Brazil,-5.7833,-35.2
Saratov,Russia,51.5333,46.0167
Zhoushan,China,29.9856,122.2074
El Dorado,Mexico,24.808,-107.397
Hermosillo,Mexico,29.0989,-110.9542
Al Ḩillah,Saudi Arabia,23.4895,46.7564
Santo Domingo Este,Dominican Republic,18.4855,-69.8734
Hai’an,China,32.535,120.563
Laiyang,China,36.9758,120.7136
Kaifeng Chengguanzhen,China,34.8519,114.3481
Rawalpindi,Pakistan,33.6,73.0333
Genoa,Italy,44.4111,8.9328
Gaomi,China,36.3833,119.75
Kawaguchi,Japan,35.8077,139.7241
Lhasa,China,29.6534,91.1719
Wrocław,Poland,51.11,17.0325
Stockton,United States,37.9765,-121.3109
Cranbourne,Australia,-38.0996,145.2834
Maceió,Brazil,-9.6658,-35.735
Łódź,Poland,51.7769,19.4547
Teresina,Brazil,-5.0949,-42.8042
Syracuse,United States,43.0407,-76.1437
Lyon,France,45.76,4.84
Bilāspur,India,22.09,82.15
Aţ Ţā’if,Saudi Arabia,21.2751,40.4062
Ludhiāna,India,30.91,75.85
Seyhan,Turkey,36.9831,35.3328
Bagam,Indonesia,1.13,104.0531
Leping,China,28.978,117.152
Chattanooga,United States,35.066,-85.2481
Shache,China,38.4261,77.25
Caerdydd,United Kingdom,51.4833,-3.1833
Hailun,China,47.4667,126.9667
Edinburgh,United Kingdom,55.9533,-3.1892
Macheng,China,31.173,115.008
Kagoshima,Japan,31.6,130.55
Nassau,"Bahamas, The",25.0781,-77.3386
Madrid,Colombia,4.7344,-74.2683
Zijinglu,China,34.7667,112.9667
Lancaster,United States,34.6935,-118.1753
Lancaster,United States,40.042,-76.3012
Islamabad,Pakistan,33.6931,73.0639
Gujranwala,Pakistan,32.1567,74.19
Greenville,United States,35.5943,-77.376
Greenville,United States,34.8354,-82.3646
Arequipa,Peru,-16.4,-71.5333
Yuci,China,37.6823,112.7281
Dehui,China,44.535,125.703
Masvingo,Zimbabwe,-20.0744,30.8328
Klang,Malaysia,3.0333,101.45
Durham,United States,35.9792,-78.9022
Āgra,India,27.18,78.02
Pensacola,United States,30.4413,-87.1911
Itabashi,Japan,35.7667,139.6833
Tongchuan,China,34.897,108.945
Suginami-ku,Japan,35.6994,139.6364
‘Ajmān,United Arab Emirates,25.4136,55.4456
Yopougon,Côte d’Ivoire,5.3167,-4.0667
Sumedang,Indonesia,-6.84,107.9208
Wŏnju,"Korea, South",37.3417,127.9208
Rājshāhi,Bangladesh,24.3667,88.6
Chengxiang,China,31.564,121.174
Ljubljana,Slovenia,46.0514,14.5061
Culiacán,Mexico,24.8069,-107.3939
Toulouse,France,43.6045,1.444
Ipoh,Malaysia,4.5972,101.075
Fayetteville,United States,36.0714,-94.1661
Fayetteville,United States,35.085,-78.9772
Worthing,United Kingdom,50.8147,-0.3714
Rongjiawan,China,29.1409,113.1087
Weichanglu,China,37.1792,119.9333
Erzurum,Turkey,39.9086,41.2769
Arlington,United States,38.8786,-77.1011
Arlington,United States,32.6998,-97.125
Qom,Iran,34.64,50.8764
Madurai,India,9.9252,78.1198
Hachiōji,Japan,35.6664,139.316
Querétaro,Mexico,20.5875,-100.3928
Jamshedpur,India,22.7925,86.1842
Renqiu,China,38.686,116.084
Kimhae,"Korea, South",35.2342,128.8811
Xindi,China,29.827,113.476
Wu’an,China,36.697,114.204
Anyang,"Korea, South",37.3833,126.9333
Peshawar,Pakistan,34.0144,71.5675
Cần Thơ,Vietnam,10.0333,105.7833
Qingping,China,34.539,113.391
Trabzon,Turkey,41.005,39.7225
Surakarta,Indonesia,-7.5667,110.8167
Ahvāz,Iran,31.3047,48.6783
Palma,Spain,39.5667,2.65
Gaoyou,China,32.7847,119.4432
Aurora,United States,39.7083,-104.7237
Aurora,United States,41.7638,-88.2902
Prayagraj,India,25.4358,81.8464
Saint-Denis,Reunion,-20.8789,55.4481
Campo Grande,Brazil,-20.4839,-54.615
Yiyang,China,26.4221,112.3999
Yiyang,China,28.5549,112.356
Hejian,China,38.4466,116.0995
São Gonçalo,Brazil,-22.8269,-43.0539
Puxi,China,35.2125,114.735
Danyang,China,32.0,119.586
Dongyang,China,29.2667,120.2167
Batam Centre,Indonesia,1.13,104.0531
Xigazê,China,29.25,88.8833
Qamdo,China,31.143,97.17
Awka,Nigeria,6.2069,7.0678
Santa Cruz,Spain,28.4667,-16.25
San Luis Potosí,Mexico,22.1511,-100.9761
Cilacap,Indonesia,-7.7167,109.017
Concepción,Chile,-36.8282,-73.0514
Bağcılar,Turkey,41.0344,28.8564
Asan,"Korea, South",36.35,126.9167
Asan,"Korea, South",36.7833,126.9833
Xiangxiang,China,27.7186,112.5502
Umraniye,Turkey,41.0311,29.1081
Tirana,Albania,41.3289,19.8178
Canagatan,Philippines,18.0,121.8
Nāsik,India,19.9975,73.7898
Bandar Lampung,Indonesia,-5.45,105.2667
Chaohucun,China,31.6244,117.8902
Trujillo,Peru,-8.112,-79.0288
Multan,Pakistan,30.1978,71.4697
Oxnard,United States,34.1964,-119.1815
Zouping,China,36.863,117.743
Indio,United States,33.7346,-116.2346
Hotan,China,37.1167,79.9167
Port Moresby,Papua New Guinea,-9.4789,147.1494
Halifax,Canada,44.6475,-63.5906
Dali,China,25.6065,100.2676
Fuyang,China,30.0553,119.95
Fuyang,China,32.89,115.814
Korla,China,41.7259,86.1746
Laval,Canada,45.5833,-73.75
Kano,Nigeria,12.0,8.5167
Scranton,United States,41.4044,-75.6649
Songzi,China,30.174,111.757
N’Djamena,Chad,12.11,15.05
Laixi,China,36.8667,120.5333
Iguaçu,Brazil,-22.74,-43.47
Victorville,United States,34.5277,-117.3536
Zhongba,China,31.771,104.755
Qingnian,China,36.8494,115.7061
Trenton,United States,40.2237,-74.7641
Tunis,Tunisia,36.8064,10.1817
Asan,"Korea, South",36.35,126.9167
Asan,"Korea, South",36.7833,126.9833
Bogor,Indonesia,-6.5966,106.7972
Yenimahalle,Turkey,39.9719,32.8119
Guangshui,China,31.617,113.826
Himeji,Japan,34.8167,134.6833
João Pessoa,Brazil,-7.12,-34.88
Kaluga,Russia,54.55,36.2833
Pohang,"Korea, South",36.0322,129.365
Sizhan,China,38.9846,106.3828
Lichuan,China,30.291,108.9364
Licheng,China,24.5,110.4
Licheng,China,31.4306,119.4788
Kōtō-ku,Japan,35.6667,139.8167
Farīdābād,India,28.4211,77.3078
Pendik,Turkey,40.8747,29.235
Comodoro Rivadavia,Argentina,-45.8647,-67.4808
Cartagena,Colombia,10.4,-75.5
Manado,Indonesia,1.4931,124.8413
Modesto,United States,37.6375,-121.0028
Utsunomiya,Japan,36.5551,139.8826
Chengguan,China,35.4623,113.8054
Nehe,China,48.4833,124.8833
Mamak,Turkey,39.9422,32.9231
Zunhua,China,40.189,117.966
Wugang,China,26.7266,110.6319
Kowloon City,Hong Kong,22.3282,114.1916
Shuangqiao,China,35.067,112.602
Huntsville,United States,34.6981,-86.6412
São Bernardo do Campo,Brazil,-23.7,-46.55
Sarajevo,Bosnia and Herzegovina,43.8564,18.4131
Wellington,New Zealand,-41.2889,174.7772
Biên Hòa,Vietnam,10.95,106.8167
Langzhong,China,31.558,106.005
Khulna,Bangladesh,22.8167,89.55
Qian’an,China,39.999,118.701
Greensboro,United States,36.0956,-79.8271
Anaheim,United States,33.839,-117.8574
Comayagüela,Honduras,14.098,-87.21
Aleppo,Syria,36.2,37.16
Bucaramanga,Colombia,7.1333,-73.0
Cencheng,China,22.9167,111.0
Matsuyama,Japan,33.8333,132.7667
Guli,China,28.9,120.0333
Anlu,China,31.2667,113.6667
Hyderabad City,Pakistan,25.3792,68.3683
Rabat,Morocco,34.0209,-6.8416
Songyang,China,34.4553,113.0253
Tolyatti,Russia,53.5089,49.4222
Shihezi,China,44.3054,86.0804
Gqeberha,South Africa,-33.9581,25.6
Yatou,China,37.1653,122.4867
Asunción,Paraguay,-25.3,-57.6333
Kirkuk,Iraq,35.4667,44.3167
Xichang,China,27.8944,102.2644
Djibouti,Djibouti,11.5883,43.145
Sham Shui Po,Hong Kong,22.3307,114.1622
Matsudo,Japan,35.7876,139.9032
Islip,United States,40.7385,-73.1888
Guadalupe,Mexico,22.7528,-102.5078
Guadalupe,Mexico,25.6775,-100.2597
Hsinchu,Taiwan,24.8167,120.9833
Corpus Christi,United States,27.7254,-97.3767
Fort Wayne,United States,41.0888,-85.1436
Poznań,Poland,52.4083,16.9336
Dashiqiao,China,40.6167,122.5167
Odesa,Ukraine,46.4775,30.7326
Ichikawa,Japan,35.7219,139.9311
Fort Collins,United States,40.5477,-105.0656
Jackson,United States,32.3157,-90.2125
Higashi-ōsaka,Japan,34.6794,135.6008
Al Jubayl,Saudi Arabia,27.0,49.6544
Fès,Morocco,34.0433,-5.0033
Selçuklu,Turkey,37.8814,32.4922
Kathmandu,Nepal,27.71,85.32
Mar del Plata,Argentina,-38.0,-57.55
Nishinomiya-hama,Japan,34.7376,135.3416
Myrtle Beach,United States,33.7094,-78.8844
Qianxi,China,27.0087,106.0323
Kawachichō,Japan,34.6794,135.6008
Makhachkala,Russia,42.9667,47.4833
Shishi,China,24.7167,118.7
Gaza,Gaza Strip,31.5069,34.456
Miluo Chengguanzhen,China,28.761,113.16
Gaizhou,China,40.4,122.35
Yıldırım,Turkey,40.11,29.0821
Acapulco de Juárez,Mexico,16.8636,-99.8825
Leling,China,37.73,117.232
Dushanbe,Tajikistan,38.5367,68.78
Meerut,India,28.98,77.71
Buraydah,Saudi Arabia,26.3333,43.9667
Fayetteville,United States,36.0714,-94.1661
Fayetteville,United States,35.085,-78.9772
Utrecht,Netherlands,52.0908,5.1217
Jianshe,China,34.2137,113.7629
Hamhŭng,"Korea, North",39.9167,127.5333
Antioch,United States,37.9787,-121.796
Jingcheng,China,32.009,120.263
Port Harcourt,Nigeria,4.8242,7.0336
Pyeongtaek,"Korea, South",36.9922,127.1128
Ōita,Japan,33.2333,131.6067
Tlaquepaque,Mexico,20.6167,-103.3167
Maputo,Mozambique,-25.9667,32.5833
Xinmin,China,41.997,122.823
Shanhu,China,29.6,120.8167
Zhongshu,China,27.7919,106.4013
Kurashiki,Japan,34.585,133.7722
Natal,Brazil,-6.9838,-60.2699
Natal,Brazil,-5.7833,-35.2
George Town,Malaysia,5.4144,100.3292
Luxembourg,Luxembourg,49.6117,6.1319
Santo André,Brazil,-23.6572,-46.5333
Izhevsk,Russia,56.8333,53.1833
Lansing,United States,42.7142,-84.5601
Dnipro,Ukraine,48.4675,35.04
Kumul,China,42.8193,93.5151
Lexington,United States,38.0423,-84.4587
Cacuaco,Angola,-8.8053,13.2444
Mobile,United States,30.6782,-88.1162
Durango,Mexico,24.025,-104.6675
Pinghu,China,30.7005,121.0104
Osasco,Brazil,-23.5328,-46.7919
Guankou,China,30.988,103.647
Guankou,China,28.1637,113.6433
Tlalnepantla,Mexico,19.5367,-99.1947
Thủ Đức,Vietnam,10.8266,106.7609
Jabalpur,India,23.1667,79.9333
Barquisimeto,Venezuela,10.0636,-69.3347
Youngstown,United States,41.0993,-80.6463
Qionghu,China,28.945,112.598
Zhaodong,China,46.051,125.962
Henderson,United States,36.0133,-115.0381
Puyang Chengguanzhen,China,35.7004,114.98
Wenchang,China,31.054,116.9507
Shulan,China,44.4059,126.9655
Savannah,United States,32.0286,-81.1821
Kanazawa,Japan,36.5611,136.6564
Pekanbaru,Indonesia,0.5092,101.4453
Quảng Hà,Vietnam,15.9333,108.2667
Etimesgut,Turkey,39.9458,32.6694
Barnaul,Russia,53.3486,83.7764
Poughkeepsie,United States,41.695,-73.9211
Kalyān,India,19.2502,73.1602
Fukuyama,Japan,34.4858,133.3622
Lingbao Chengguanzhen,China,34.5176,110.8942
Amagasaki,Japan,34.7333,135.4
Cúcuta,Colombia,7.8942,-72.5039
Fort-de-France,Martinique,14.6,-61.0667
Yukarıkaraman,Turkey,36.9167,30.6833
Sorocaba,Brazil,-23.5017,-47.4581
Ulyanovsk,Russia,54.3167,48.3667
Xiping,China,25.6005,103.8166
Xiping,China,40.082,113.2981
Irkutsk,Russia,52.2833,104.2833
Santa Ana,United States,33.7367,-117.8819
Central Coast,Australia,-33.3,151.2
Sanhe,China,40.0167,117.0833
Maebashi,Japan,36.3895,139.0634
Jieshou,China,33.257,115.3746
Bochum,Germany,51.4819,7.2158
Jeju,"Korea, South",33.513,126.523
Palermo,Colombia,2.8917,-75.4375
Kermānshāh,Iran,34.3325,47.0933
Stoke-on-Trent,United Kingdom,53.0,-2.1833
Suohe,China,34.7833,113.35
Ann Arbor,United States,42.2759,-83.731
Guixi,China,28.2925,117.2454
St. Paul,United States,44.9478,-93.1039
Christchurch,New Zealand,-43.531,172.6365
Katsushika-ku,Japan,35.7333,139.85
Malmö,Sweden,55.6058,13.0358
Niamey,Niger,13.515,2.1175
Vasai-Virar,India,19.3607,72.7956
Khabarovsk,Russia,48.4833,135.0833
Wuxue,China,29.844,115.561
Uberlândia,Brazil,-18.9231,-48.2886
Newark,United States,40.7245,-74.1725
Jinghong,China,22.009,100.797
Tengyue,China,25.0167,98.4833
As Sulaymānīyah,Iraq,35.5572,45.4356
San Cristóbal,Venezuela,7.7667,-72.2333
Ruiming,China,25.886,116.027
Qufu,China,35.5819,116.9862
Ar Ramādī,Iraq,33.4258,43.2992
Wuppertal,Germany,51.2667,7.1833
Melikgazi,Turkey,38.7167,35.5
Irvine,United States,33.6772,-117.7738
Victoria,Canada,48.4283,-123.3647
Xinshi,China,31.1333,113.1167
Najafgarh,India,28.6092,76.9798
Sihŭng,"Korea, South",37.3799,126.8029
Jaboatão,Brazil,-8.1803,-35.0014
Manukau City,New Zealand,-37.0,174.885
Jin’e,China,29.3394,105.2875
Vārānasi,India,25.3189,83.0128
Coventry,United Kingdom,52.4081,-1.5106
Chuxiong,China,25.033,101.5459
Ribeirão Prêto,Brazil,-21.1783,-47.8067
Chimalhuacán,Mexico,19.4167,-98.9
São José dos Campos,Brazil,-23.1789,-45.8869
Taoyuan District,Taiwan,24.9913,121.3143
Uijeongbu,"Korea, South",37.7486,127.0389
Yaroslavl,Russia,57.6167,39.85
Puente Alto,Chile,-33.6167,-70.5667
Oyster Bay,United States,40.7846,-73.514
Fujisawa,Japan,35.35,139.4667
Donetsk,Ukraine,48.0028,37.8053
Xinxing,China,39.8667,124.15
Nampo,"Korea, North",38.7333,125.4
Gdańsk,Poland,54.3475,18.6453
Vladivostok,Russia,43.1333,131.9
Kaihua,China,23.387,104.233
Meilan,China,19.999,110.403
Srīnagar,India,34.09,74.79
Bazhou,China,31.868,106.748
Bazhou,China,39.1333,116.3833
Turpan,China,42.9512,89.1895
Pietermaritzburg,South Africa,-29.6167,30.3833
Machida,Japan,35.5542,139.4431
Durban,South Africa,-29.8833,31.05
Santa Rosa,United States,38.4458,-122.7067
Aurangābād,India,19.88,75.32
Santiago,Philippines,16.68,121.55
Paju,"Korea, South",37.8667,126.8
Freetown,Sierra Leone,8.4844,-13.2344
Erbil,Iraq,36.1912,44.0092
Meihekou,China,42.5407,125.7107
San Miguel de Tucumán,Argentina,-26.8167,-65.2167
Jurong,China,31.946,119.164
Bergen,Norway,60.3894,5.33
Yuhuan,China,28.1277,121.2288
Canton,United States,40.8078,-81.3676
Asheville,United States,35.5707,-82.5537
Xinji,China,37.943,115.218
Flint,United States,43.0236,-83.6921
Sincan,Turkey,39.9594,32.5767
Changping,China,40.2248,116.1944
Winter Haven,United States,28.0118,-81.7014
Dhanbād,India,23.7998,86.4305
Bern,Switzerland,46.9481,7.4475
Kashiwa,Japan,35.8676,139.9758
Padang,Indonesia,-0.95,100.3531
Zhangshu,China,28.0546,115.5462
Petaling Jaya,Malaysia,3.0972,101.6444
Anchorage,United States,61.1508,-149.1091
Kumi,"Korea, South",36.1195,128.3444
Aomori,Japan,40.8228,140.7469
Lincoln,United States,40.8099,-96.6784
Irapuato,Mexico,20.6667,-101.35
Marrakech,Morocco,31.63,-8.0089
El Alto,Bolivia,-16.5047,-68.1633
Concord,United States,35.3933,-80.6369
Concord,United States,37.9722,-122.0016
Bologna,Italy,44.4939,11.3428
Reynosa,Mexico,26.0922,-98.2778
Zhuozhou,China,39.485,115.974
Toyota,Japan,35.0824,137.1563
Jersey City,United States,40.7184,-74.0686
Tianchang,China,32.6811,119.0137
Bielefeld,Germany,52.0211,8.5347
Belfast,United Kingdom,54.5964,-5.93
Aracaju,Brazil,-10.9167,-37.05
Springfield,United States,42.1155,-72.5395
Springfield,United States,37.1943,-93.2916
Springfield,United States,39.7709,-89.654
Tomsk,Russia,56.5,84.9667
Bonn,Germany,50.7333,7.1
Amritsar,India,31.64,74.86
Alīgarh,India,27.88,78.08
Takamatsu,Japan,34.35,134.05
Plano,United States,33.0502,-96.7486
Ch’ŏngjin,"Korea, North",41.7833,129.7667
Cebu City,Philippines,10.32,123.75
Tangier,Morocco,35.7767,-5.8039
Markham,Canada,43.8767,-79.2633
Shinagawa-ku,Japan,35.6,139.7333
Shreveport,United States,32.4653,-93.7955
Tuxtla,Mexico,16.7528,-93.1167
Sihui,China,23.3265,112.7338
Luocheng,China,22.7689,111.5697
Luocheng,China,30.99,104.25
Orenburg,Russia,51.7833,55.1
Toyama,Japan,36.6959,137.2137
Reykjavík,Iceland,64.1467,-21.94
Shubrā al Khaymah,Egypt,30.1286,31.2422
Oshawa,Canada,43.9,-78.85
Davenport,United States,41.5565,-90.6053
Guwāhāti,India,26.1722,91.7458
Asmara,Eritrea,15.3228,38.925
Kananga,Congo (Kinshasa),-5.897,22.4488
Lubbock,United States,33.5657,-101.8879
Balandougou,Mali,13.3558,-9.5517
Cuiabá,Brazil,-15.5958,-56.0969
Lakeland,United States,28.0557,-81.9545
Reading,United Kingdom,51.4542,-0.9731
Wenlan,China,23.3961,103.3649
Shangzhi,China,45.2116,127.962
Tonalá,Mexico,20.6167,-103.2333
Kemerovo,Russia,55.3667,86.0667
Botou,China,38.0833,116.5833
Aves,Portugal,41.44,-8.3
South Bend,United States,41.6767,-86.2696
Jaboatão dos Guararapes,Brazil,-8.1122,-35.0156
Mombasa,Kenya,-4.05,39.6667
Kuantan,Malaysia,3.8167,103.3333
Chula Vista,United States,32.6281,-117.0144
Nagasaki,Japan,32.7447,129.8736
Novokuznetsk,Russia,53.7667,87.1333
Chandler,United States,33.2825,-111.8514
Xiulin,China,29.7209,112.4254
Fu’an,China,27.1,119.6333
Nilüfer,Turkey,40.2833,28.95
Toyonaka,Japan,34.7833,135.4667
Piraeus,Greece,37.943,23.6469
Rockford,United States,42.2596,-89.064
Nice,France,43.7034,7.2663
Gifu,Japan,35.4232,136.7608
Maipú,Chile,-33.5167,-70.7667
Reading,United States,40.34,-75.9267
Luofeng,China,37.359,120.396
Ḩafr al Bāţin,Saudi Arabia,28.4342,45.9636
Münster,Germany,51.9625,7.6256
Lingyuan,China,41.25,119.4
Cuautitlán Izcalli,Mexico,19.65,-99.25
Hāora,India,22.58,88.3294
Miyazaki,Japan,31.9078,131.4203
Aarhus,Denmark,56.1572,10.2107
Eugene,United States,44.0564,-123.1174
Hirakata,Japan,34.8167,135.65
Rānchi,India,23.36,85.33
Shenzhou,China,38.002,115.56
Cotonou,Benin,6.3667,2.4333
Gwalior,India,26.2124,78.1772
Kuiju,China,36.8667,119.4
Zhenzhou,China,32.2723,119.1848
Al Jahrā’,Kuwait,29.35,47.6833
Wilmington,United States,34.2099,-77.8866
Florence,Italy,43.7714,11.2542
Ryazan,Russia,54.63,39.7425
Santa Clarita,United States,34.4175,-118.4964
Contagem,Brazil,-19.9319,-44.0539
Brno,Czechia,49.1925,16.6083
Mannheim,Germany,49.4878,8.4661
Denpasar,Indonesia,-8.65,115.2167
Buca,Turkey,38.35,27.1667
Wencheng,China,19.617,110.7551
Lanxi,China,29.208,119.458
Dangyang,China,30.821,111.789
Gilbert,United States,33.31,-111.7463
Samarinda,Indonesia,-0.5,117.1378
Naberezhnyye Chelny,Russia,55.6833,52.3167
Shah Alam,Malaysia,3.0722,101.5167
Salem,United States,44.9233,-123.0244
Yokosuka,Japan,35.2813,139.6721
Chandīgarh,India,30.75,76.78
Killeen,United States,31.0753,-97.7297
Joinvile,Brazil,-26.3204,-48.8437
Feira de Santana,Brazil,-12.25,-38.95
Ixtapaluca,Mexico,19.3186,-98.8822
Heroica Matamoros,Mexico,25.8797,-97.5042
Windhoek,Namibia,-22.57,17.0836
Haldwāni,India,29.22,79.52
Luanzhou,China,39.741,118.704
Round Lake Beach,United States,42.3791,-88.0811
Columbus,United States,32.51,-84.8771
Columbus,United States,39.9862,-82.9855
Vijayavāda,India,16.5193,80.6305
North Las Vegas,United States,36.2883,-115.0888
Georgetown,Guyana,6.8058,-58.1508
Barinas,Venezuela,8.6333,-70.2
Tamale,Ghana,9.4075,-0.8533
Cochabamba,Bolivia,-17.3883,-66.1597
Okazaki,Japan,34.9543,137.1744
Nneyi-Umuleri,Nigeria,6.3333,6.8333
Wuhai,China,39.655,106.794
Cazenga,Angola,-8.8214,13.2911
Soledad,Colombia,10.9167,-74.75
Karlsruhe,Germany,49.0092,8.404
Yanji,China,42.9,129.5
Astrakhan,Russia,46.35,48.035
Huanghua,China,38.372,117.33
Antipolo,Philippines,14.5842,121.1763
Taguig City,Philippines,14.52,121.05
Kingston upon Hull,United Kingdom,53.7444,-0.3325
Xingcheng,China,24.1347,115.73
Xingcheng,China,40.6167,120.7333
Wancheng,China,18.8,110.4
Jodhpur,India,26.28,73.02
Salta,Argentina,-24.7833,-65.4167
Kaiyuan,China,36.0193,113.86
Kaiyuan,China,42.546,124.038
Kaiyuan,China,23.7111,103.2461
Minamisuita,Japan,34.7594,135.5169
Kennewick,United States,46.1978,-119.1732
Onitsha,Nigeria,6.1667,6.7833
Fengcheng,China,40.45,124.0667
Tepic,Mexico,21.5083,-104.8931
St. Petersburg,United States,27.7931,-82.6652
Ghulja,China,43.9,81.35
Lilongwe,Malawi,-13.9833,33.7833
Tallahassee,United States,30.4551,-84.2527
Fuding,China,27.2,120.2
Uruapan,Mexico,19.4208,-102.0628
Ichinomiya,Japan,35.3039,136.8031
Penza,Russia,53.2,45.0
Kaunas,Lithuania,54.8972,23.8861
Villavicencio,Colombia,4.15,-73.6333
Windsor,Canada,42.2833,-83.0
Chang’an,China,29.4768,113.4504
Ciudad Apodaca,Mexico,25.7817,-100.1886
Rangapukur,Bangladesh,25.56,89.25
Aksu,China,41.185,80.2904
Augsburg,Germany,48.3689,10.8978
Laredo,United States,27.5625,-99.4874
Irving,United States,32.8583,-96.9702
Tultitlán de Mariano Escobedo,Mexico,19.645,-99.1694
Lubumbashi,Congo (Kinshasa),-11.6647,27.4794
Sale,Morocco,34.0333,-6.8
Raipur,India,21.2444,81.6306
Mingguang,China,32.7833,117.9667
Takasaki,Japan,36.3219,139.0033
Maastricht,Netherlands,50.85,5.6833
Peoria,United States,33.7843,-112.2989
Peoria,United States,40.752,-89.6154
Toyohashi,Japan,34.7692,137.3915
Mandalay,Burma,21.9831,96.0844
An Najaf,Iraq,32.0,44.33
Gaobeidian,China,39.327,115.874
Kota,India,25.18,75.83
Graz,Austria,47.0708,15.4386
Bareilly,India,28.364,79.415
Ailan Mubage,China,43.908,81.2777
Gimpo,"Korea, South",37.7,126.6
Lipetsk,Russia,52.6167,39.6
Montgomery,United States,32.3482,-86.2668
Ciudad Victoria,Mexico,23.7389,-99.1431
Nagano,Japan,36.6486,138.1947
Kirov,Russia,58.6,49.6833
Cork,Ireland,51.8972,-8.47
Pikine,Senegal,14.75,-17.4
Yucheng,China,36.934,116.638
Yucheng,China,30.01,103.0415
Newcastle,United Kingdom,54.978,-1.6102
Chesapeake,United States,36.6778,-76.3023
Keelung,Taiwan,25.1333,121.7333
Ratnāgiri,India,16.9944,73.3
Kaliningrad,Russia,54.7003,20.4531
Sungai Petani,Malaysia,5.65,100.5
Anda,China,46.424,125.352
Longzhou,China,30.32,112.23
Glendale,United States,34.1819,-118.2468
Glendale,United States,33.5791,-112.2311
Blantyre,Malawi,-15.7861,35.0058
Ashmūn,Egypt,30.2941,31.0342
Sintra,Portugal,38.7992,-9.3883
York,United States,39.9651,-76.7315
Şanlıurfa,Turkey,37.1583,38.7917
Espoo,Finland,60.2056,24.6556
Heshan,China,22.7667,112.95
Alicante,Spain,38.3453,-0.4831
Jiaji,China,19.2431,110.4642
Beining,China,41.6,121.8
Mazatlán,Mexico,23.2167,-106.4167
Nashua,United States,42.7491,-71.491
Yicheng,China,31.721,112.257
Yicheng,China,31.36,119.815
Cheboksary,Russia,56.15,47.2333
Garland,United States,32.91,-96.6304
Gatineau,Canada,45.4833,-75.65
Bradford,United Kingdom,53.8,-1.75
Szczecin,Poland,53.4325,14.5481
Qaraghandy,Kazakhstan,49.8028,73.1056
Jeonju,"Korea, South",35.8167,127.15
Encheng,China,22.1833,112.3
Kawagoe,Japan,35.9251,139.4858
Coimbatore,India,11.0167,76.9556
Kermān,Iran,30.2911,57.0678
Orūmīyeh,Iran,37.5439,45.0647
Wakayama,Japan,34.2333,135.1667
Nagqu,China,31.476,92.051
Kita-ku,Japan,35.75,139.7333
Karbalā’,Iraq,32.6167,44.0333
Küçükçekmece,Turkey,41.0,28.8
Scottsdale,United States,33.6872,-111.8651
Nara,Japan,34.6844,135.805
Chinju,"Korea, South",35.2,128.0833
Wiesbaden,Germany,50.0825,8.24
Domaa-Ahenkro,Ghana,7.2833,-2.8833
Nārāyanganj,Bangladesh,23.62,90.5
Ciudad López Mateos,Mexico,19.55,-99.2833
Sandnes,Norway,58.8517,5.7361
Stavanger,Norway,58.97,5.7314
Solāpur,India,17.68,75.92
Londrina,Brazil,-23.31,-51.1628
Tin Shui Wai,Hong Kong,22.46,114.002
Meicheng,China,30.631,116.581
Nenjiang,China,49.11,125.13
Lviv,Ukraine,49.8425,24.0322
Nouméa,New Caledonia,-22.2758,166.458
Shinjuku,Japan,35.7014,139.7097
Hubli,India,15.3502,75.1376
Muzaffarpur,India,26.1225,85.3906
Hongjiang,China,27.191,109.819
Lafayette,United States,40.3991,-86.8593
Lafayette,United States,30.2082,-92.0325
Montpellier,France,43.6119,3.8772
Bolton,United Kingdom,53.578,-2.429
Takatsuki,Japan,34.8461,135.6175
Norfolk,United States,36.8945,-76.259
Beipiao,China,41.801,120.771
Dengtacun,China,41.4333,123.3333
Zhijiang,China,30.426,111.761
Suoluntun,China,45.2279,124.8432
Pasig City,Philippines,14.5605,121.0765
Chengjiao,China,35.3984,114.0649
North Hempstead,United States,40.7912,-73.6688
Kartal,Turkey,40.8872,29.19
Zaporizhzhia,Ukraine,47.85,35.1175
Pīshbar,Iran,33.3886,59.9789
Arlington,United States,32.6998,-97.125
Arlington,United States,38.8786,-77.1011
Duyun,China,26.2594,107.5186
Nakano,Japan,35.7074,139.6638
Wollongong,Australia,-34.4331,150.8831
Bari,Italy,41.1253,16.8667
Ōtsu,Japan,35.0167,135.85
Yuanping,China,38.731,112.711
Appleton,United States,44.278,-88.3892
Balashikha,Russia,55.8167,37.9667
Tula,Russia,54.2,37.6167
Yueqing,China,28.12,120.96
Koshigaya,Japan,35.8911,139.7909
Juiz de Fora,Brazil,-21.7619,-43.3494
Bornova,Turkey,38.4697,27.2211
Tokorozawa,Japan,35.7996,139.4686
Karamay,China,45.5799,84.8892
Shahe,China,36.8549,114.5033
Erköklü,Turkey,37.887,41.132
Demiryol,Turkey,37.887,41.132
Florianópolis,Brazil,-27.6122,-48.4853
Gaoping,China,30.7824,106.1281
Gaoping,China,35.798,112.924
Bangui,Central African Republic,4.3733,18.5628
Trichinopoly,India,10.7903,78.7047
Dunhua,China,43.3667,128.2333
Lianran,China,24.919,102.478
Sunderland,United Kingdom,54.906,-1.381
San Juan,Argentina,-31.5342,-68.5261
Iwaki,Japan,37.0505,140.8877
Pereira,Colombia,4.8143,-75.6946
Rock Hill,United States,34.9415,-81.0241
Fremont,United States,37.5265,-121.9843
Strasbourg,France,48.5833,7.7458
Córdoba,Spain,37.8845,-4.7796
Fargo,United States,46.8651,-96.8292
Jiannan,China,31.3333,104.2
Gulfport,United States,30.4274,-89.0704
Mönchengladbach,Germany,51.2,6.4333
Esenler,Turkey,41.0339,28.8903
Kahramanmaraş,Turkey,37.5833,36.9333
Benghazi,Libya,32.1167,20.0667
Nangong,China,37.359,115.409
Bremerton,United States,47.5436,-122.7121
Johor Bahru,Malaysia,1.4556,103.7611
Gwangmyeongni,"Korea, South",37.476,126.866
Ciudad Guayana,Venezuela,8.3667,-62.65
Borvāyeh-ye Al Bū ‘Azīz,Iran,31.6283,48.6147
Gent,Belgium,51.0536,3.7253
Green Bay,United States,44.5148,-87.9895
Enterprise,United States,36.0091,-115.2278
Kursk,Russia,51.7167,36.1833
Jiaojiangcun,China,28.6804,121.45
Laohekou,China,32.359,111.684
Stavropol,Russia,45.05,41.9833
Derby,United Kingdom,52.9247,-1.478
Serra,Brazil,-20.1289,-40.3078
Beian,China,48.25,126.5167
Fujin,China,47.25,132.0333
Morādābād,India,28.8319,78.7764
Kâğıthane,Turkey,41.0719,28.9664
Xiaoyi,China,36.0833,111.5167
Lanús,Argentina,-34.7,-58.4
Qingzhen,China,26.5704,106.4687
Jiangshan,China,28.7361,118.625
Avcılar,Turkey,40.9792,28.7214
Gelsenkirchen,Germany,51.5167,7.1
Koriyama,Japan,37.4004,140.3597
Saskatoon,Canada,52.1333,-106.6833
Hialeah,United States,25.8696,-80.3045
Eindhoven,Netherlands,51.4333,5.4833
Rasht,Iran,37.2744,49.5889
Plymouth,United Kingdom,50.3714,-4.1422
Catania,Italy,37.5,15.0903
Kōchi,Japan,33.5589,133.5314
Kōchi,Japan,33.5589,133.5314
Longjiang,China,27.5819,120.5489
Longjiang,China,22.8711,113.0684
Geneva,Switzerland,46.2017,6.1469
Tiruppūr,India,11.1085,77.3411
Deltona,United States,28.905,-81.2137
Macapá,Brazil,0.033,-51.05
San Bernardino,United States,34.1416,-117.2943
Gurgaon,India,28.456,77.029
Gainesville,United States,29.6804,-82.3459
Gainesville,United States,34.2902,-83.8294
Kuqa,China,41.7156,82.9322
Bahār,Iran,34.9028,48.4425
Campos,Brazil,-21.7539,-41.3239
San Pedro Sula,Honduras,15.5,-88.0333
Jalandhar,India,31.2569,75.4432
Spring Valley,United States,36.0952,-115.2636
Chiclayo,Peru,-6.763,-79.8366
Cotabato,Philippines,7.22,124.25
Ulan-Ude,Russia,51.8333,107.6
Tacoma,United States,47.2431,-122.4531
Ḩā’il,Saudi Arabia,27.5167,41.6833
Roanoke,United States,37.2785,-79.9581
Malatya,Turkey,38.3486,38.3194
Bello,Colombia,6.3333,-75.5667
Babylon,United States,40.6925,-73.3586
Jian’ou,China,27.0333,118.3167
Tasikmalaya,Indonesia,-7.3161,108.1975
Ensenada,Mexico,31.8578,-116.6058
Huadian,China,42.972,126.746
San Nicolás de los Garza,Mexico,25.75,-100.2833
Bawshar,Oman,23.5333,58.3833
Minzhu,China,43.7238,127.3448
Elazığ,Turkey,38.6744,39.2228
Malabo,Equatorial Guinea,3.7456,8.7744
Naha,Japan,26.2122,127.6792
Brownsville,United States,25.9975,-97.458
Trondheim,Norway,63.4297,10.3933
Cagayan de Oro,Philippines,8.48,124.65
Niterói,Brazil,-22.8833,-43.1036
Aachen,Germany,50.7756,6.0836
Braunschweig,Germany,52.2667,10.5167
Tanbei,China,35.088,112.951
Pingquan,China,41.0042,118.6848
Longueuil,Canada,45.5333,-73.5167
Groningen,Netherlands,53.2189,6.5675
College Station,United States,30.5852,-96.2959
San Salvador,El Salvador,13.6989,-89.1914
Baisha,China,29.4896,119.337
Banjarmasin,Indonesia,-3.32,114.5925
Katako-Kombe,Congo (Kinshasa),-3.4,24.42
Yongji,China,34.867,110.448
Westminster,United Kingdom,51.4947,-0.1353
Tver,Russia,56.8625,35.9242
Altındağ,Turkey,39.9636,32.9033
Yangsan,"Korea, South",35.3333,129.0333
Danjiangkou,China,32.5401,111.5131
Yokkaichi,Japan,34.965,136.6244
Al Qunfudhah,Saudi Arabia,19.1264,41.0789
Bujumbura,Burundi,-3.3833,29.3667
Bhubaneshwar,India,20.2644,85.8281
Valledupar,Colombia,10.4833,-73.25
Chemnitz,Germany,50.8333,12.9167
Olympia,United States,47.0417,-122.8959
Valenzuela,Philippines,14.7,120.98
Clarksville,United States,36.5692,-87.3413
Kiel,Germany,54.3233,10.1394
Al Mubarraz,Saudi Arabia,25.3833,49.6
Ning’an,China,44.341,129.483
Ibagué,Colombia,4.4333,-75.2333
Valladolid,Spain,41.6528,-4.7236
Yonkers,United States,40.9466,-73.8673
Veracruz,Mexico,19.1903,-96.1533
Turku,Finland,60.45,22.2667
Maiduguri,Nigeria,11.8333,13.15
Kocasinan,Turkey,38.7333,35.4833
Moreno Valley,United States,33.9244,-117.2045
Thousand Oaks,United States,34.1914,-118.8756
Portland,United States,45.5371,-122.65
Portland,United States,43.6773,-70.2715
Fontana,United States,34.0968,-117.4599
Ipswich,Australia,-27.6144,152.7608
Rishon LeẔiyyon,Israel,31.95,34.8
Jinchang,China,38.5214,102.188
Kasugai,Japan,35.2475,136.9722
Guangming,China,45.3357,122.7765
Magnitogorsk,Russia,53.3833,59.0333
Burnaby,Canada,49.2667,-122.9667
Wolverhampton,United Kingdom,52.5833,-2.1333
Bağlar,Turkey,37.9167,40.1833
Xalapa,Mexico,19.54,-96.9275
Bazal’tove,Ukraine,50.6765,26.16
Zhuangyuan,China,37.3056,120.829
Bydgoszcz,Poland,53.1219,18.0003
Melaka,Malaysia,2.1944,102.2486
Yüreğir,Turkey,36.9981,35.3439
Dasmariñas,Philippines,14.33,120.94
Vigo,Spain,42.2314,-8.7124
São José do Rio Prêto,Brazil,-20.8081,-49.3811
Akita,Japan,39.72,140.1026
Kurume,Japan,33.3192,130.5083
Ananindeua,Brazil,-1.3658,-48.3719
Kota Kinabalu,Malaysia,5.975,116.0725
Hickory,United States,35.741,-81.3223
Amarillo,United States,35.1984,-101.8316
Shimoga,India,13.9333,75.5667
Huế,Vietnam,16.4667,107.5792
General Santos,Philippines,6.12,125.17
Halle,Germany,51.4828,11.9697
Sochi,Russia,43.5853,39.7203
Kismaayo,Somalia,-0.3581,42.5453
Huili Chengguanzhen,China,26.6333,102.25
Sioux Falls,United States,43.5396,-96.7311
Ōakashichō,Japan,34.65,135.0
Northampton,United Kingdom,52.2304,-0.8938
Abertawe,United Kingdom,51.6167,-3.95
Bhayandar,India,19.29,72.85
Barnsley,United Kingdom,53.5547,-1.4791
Huntington,United States,38.4109,-82.4345
Huntington,United States,40.8521,-73.3823
Vila Velha,Brazil,-20.3364,-40.2936
Evansville,United States,37.9881,-87.5341
Xunyang,China,32.8341,109.3653
Yan’an Beilu,China,44.0144,87.2674
City of Parañaque,Philippines,14.5008,120.9915
Toshima,Japan,35.7333,139.7167
St. Catharines,Canada,43.1833,-79.2333
Magdeburg,Germany,52.1317,11.6392
Aba,Nigeria,5.1167,7.3667
Montería,Colombia,8.75,-75.8833
Huntington,United States,40.8521,-73.3823
Huntington,United States,38.4109,-82.4345
Soacha,Colombia,4.5872,-74.2214
Waterbury,United States,41.5582,-73.0361
Frisco,United States,33.156,-96.8216
Lorain,United States,41.4409,-82.184
Benin City,Nigeria,6.3333,5.6222
Kalamazoo,United States,42.2749,-85.5882
Kryvyi Rih,Ukraine,47.91,33.39
Chuncheon,"Korea, South",37.8667,127.7333
Mwanza,Tanzania,-2.5167,32.9
Ivanovo,Russia,56.9967,40.9819
Mishan,China,45.5298,131.8466
Hailin,China,44.594,129.38
Galveston,United States,29.2484,-94.8913
Freiburg im Breisgau,Germany,47.995,7.85
Zhengjiatun,China,43.5183,123.5027
Lecheng,China,25.1333,113.3333
Xicheng,China,23.3667,103.15
Pencheng,China,29.676,115.681
Spartanburg,United States,34.9442,-81.9251
Santa Marta,Colombia,11.2419,-74.2053
Caxias do Sul,Brazil,-29.1667,-51.1833
Da’an,China,45.5,124.2833
Catia La Mar,Venezuela,10.6,-67.0333
Bryansk,Russia,53.2333,34.3667
Xingren,China,25.435,105.1862
Santa Barbara,United States,34.4285,-119.7202
Jambi,Indonesia,-1.59,103.61
Fenyang,China,37.2616,111.7699
Homyel’,Belarus,52.4453,30.9842
Gyeongsan,"Korea, South",35.8167,128.7333
Quetta,Pakistan,30.1833,67.0
Porto Velho,Brazil,-8.7619,-63.9039
Pontianak,Indonesia,-0.0206,109.3414
Sunrise Manor,United States,36.1783,-115.0487
Shagamu,Nigeria,6.8333,3.65
Morioka,Japan,39.7021,141.1545
Vila Nova de Gaia,Portugal,41.1333,-8.6167
San Salvador de Jujuy,Argentina,-24.1833,-65.3
Petaẖ Tiqwa,Israel,32.0889,34.8864
Surgut,Russia,61.25,73.4333
Manisa,Turkey,38.6144,27.4292
Huntington Beach,United States,33.696,-118.0018
Santa Fe,Argentina,-31.6333,-60.7
Central District,Hong Kong,22.2867,114.155
Ubungo,Tanzania,-6.7889,39.2056
Grand Prairie,United States,32.6871,-97.0208
Fangting,China,31.127,104.167
Linghai,China,41.1667,121.35
Serang,Indonesia,-6.12,106.1503
Overland Park,United States,38.887,-94.687
Meguro,Japan,35.6333,139.6833
Almere,Netherlands,52.3667,5.2167
Debrecen,Hungary,47.53,21.6392
McKinney,United States,33.2016,-96.667
Kunsan,"Korea, South",35.9833,126.7167
Yeosu,"Korea, South",34.7607,127.6622
Yeosu,"Korea, South",34.7333,127.7333
Bacoor,Philippines,14.4624,120.9645
Öskemen,Kazakhstan,49.9833,82.6167
Waco,United States,31.5599,-97.1882
Zhangjiakou Shi Xuanhua Qu,China,40.5944,115.0243
Hagerstown,United States,39.6401,-77.7217
Tân An,Vietnam,10.905,106.6994
Yeosu,"Korea, South",34.7333,127.7333
Yeosu,"Korea, South",34.7607,127.6622
Lubango,Angola,-14.9167,13.5
Wanyuan,China,31.9833,107.9667
Glendale,United States,33.5791,-112.2311
Glendale,United States,34.1819,-118.2468
Mogi das Cruzes,Brazil,-23.5228,-46.1878
Rustenburg,South Africa,-25.6667,27.2428
Jiexiu,China,37.027,111.917
Nampa,United States,43.5844,-116.5638
Fukushima,Japan,37.7608,140.4747
Krefeld,Germany,51.3333,6.5667
Ibaraki,Japan,34.8164,135.5686
Hatay,Turkey,36.2025,36.1606
Iksan,"Korea, South",35.9439,126.9544
Tondo,Philippines,14.617,120.967
Kunp’o,"Korea, South",37.35,126.95
Ikare,Nigeria,7.5167,5.75
Zāhedān,Iran,29.5025,60.8558
Patiāla,India,30.34,76.38
Pointe-Noire,Congo (Brazzaville),-4.7975,11.8503
San Jose del Monte,Philippines,14.8139,121.0453
La Florida,Chile,-33.5333,-70.5833
Balikpapan,Indonesia,-1.2768,116.8277
Gaziantep,Turkey,37.0628,37.3792
Ostrava,Czechia,49.8356,18.2925
Seremban,Malaysia,2.7222,101.9417
Peoria,United States,33.7843,-112.2989
Peoria,United States,40.752,-89.6154
Cedar Rapids,United States,41.9662,-91.6783
Laqţah,Qatar,25.4175,51.5075
Jiangjiafan,China,31.0238,111.9709
Verona,Italy,45.4386,10.9928
Sinnūris,Egypt,29.4072,30.8667
Gebze,Turkey,40.8,29.4333
Nyala,Sudan,12.05,24.8833
Shīshgarh,India,28.72,79.32
Aqtöbe,Kazakhstan,50.2836,57.2297
Paradise,United States,36.0872,-115.1355
Regina,Canada,50.4547,-104.6067
Gijón,Spain,43.5333,-5.7
Santiago de Cuba,Cuba,20.0217,-75.8294
Suncheon,"Korea, South",34.9506,127.4875
An Nāşirīyah,Iraq,31.0439,46.2575
Hejin,China,35.596,110.712
Al Ḩillah,Iraq,32.4775,44.4314
Basel,Switzerland,47.5547,7.5906
Piura,Peru,-5.2,-80.6333
Cimahi,Indonesia,-6.8712,107.5548
Nuevo Laredo,Mexico,27.4861,-99.5069
Zhugang,China,28.1358,121.2264
Thiruvananthapuram,India,8.5241,76.9366
Mainz,Germany,49.9994,8.2736
Sivas,Turkey,39.75,37.0167
Ocala,United States,29.178,-82.1511
Hancheng,China,35.4667,110.4333
Alanya,Turkey,36.55,32.0
Tsu,Japan,34.7184,136.5057
Venice,Italy,45.4375,12.3358
Kocaeli,Turkey,40.7625,29.9175
Tieli,China,46.95,128.05
Varna,Bulgaria,43.2167,27.9167
Sunch’ŏn,"Korea, North",39.4167,125.9333
Lille,France,50.6278,3.0583
Kayapınar,Turkey,37.95,40.1667
Sumida,Japan,35.7,139.8167
Erie,United States,42.1167,-80.0733
Makati City,Philippines,14.5567,121.0214
Cabinda,Angola,-5.56,12.19
Celaya,Mexico,20.5222,-100.8122
Plovdiv,Bulgaria,42.15,24.75
Newport News,United States,37.1051,-76.5185
Lübeck,Germany,53.8697,10.6864
Frederick,United States,39.4337,-77.4141
Murfreesboro,United States,35.849,-86.4121
Swindon,United Kingdom,51.56,-1.78
Mito,Japan,36.3658,140.4712
Sucre,Bolivia,-19.0475,-65.26
Ashdod,Israel,31.8,34.65
Lianzhou,China,24.781,112.377
Yidu,China,30.378,111.45
Lingxi,China,27.5036,120.3975
Novi Sad,Serbia,45.2542,19.8425
Ichihara,Japan,35.4981,140.1154
Konak,Turkey,38.4189,27.1285
Fort Lauderdale,United States,26.1412,-80.1464
Zêtang,China,29.238,91.771
Piracicaba,Brazil,-22.7253,-47.6492
Netanya,Israel,32.3286,34.8567
Hamadān,Iran,34.8064,48.5161
Mixco,Guatemala,14.6331,-90.6064
Aurora,United States,41.7638,-88.2902
Aurora,United States,39.7083,-104.7237
Nagaoka,Japan,37.4462,138.8512
Al Mafraq,Jordan,32.3399,36.2052
Van,Turkey,38.4942,43.38
Linz,Austria,48.3058,14.2864
Białystok,Poland,53.1353,23.1456
Tempe,United States,33.3881,-111.9319
Bloemfontein,South Africa,-29.1167,26.2167
Gaborone,Botswana,-24.6581,25.9122
Campina Grande,Brazil,-7.2306,-35.8811
Sandakan,Malaysia,5.8333,118.1167
Ogbomoso,Nigeria,8.1333,4.25
Vitoria-Gasteiz,Spain,42.85,-2.6833
Mauá,Brazil,-23.6678,-46.4608
Danbury,United States,41.4015,-73.4709
Helixi,China,30.6267,118.9861
Yao,Japan,34.6269,135.601
Nicolás Romero,Mexico,19.5833,-99.3667
Dayrūţ,Egypt,27.5667,30.8167
Newcastle,South Africa,-27.7464,29.9328
Oakville,Canada,43.45,-79.6833
Oberhausen,Germany,51.4967,6.8706
Spring Hill,United States,28.4798,-82.53
Bhiwandi,India,19.2967,73.0631
Las Piñas City,Philippines,14.45,120.98
Tecámac,Mexico,19.7131,-98.9683
Al ‘Amārah,Iraq,31.8333,47.15
Fukui,Japan,36.0641,136.2196
Pamukkale,Turkey,37.9167,29.1167
Vantaa,Finland,60.2944,25.0403
Boa Vista,Brazil,2.8194,-60.6714
Gastonia,United States,35.2494,-81.1854
Rostock,Germany,54.0833,12.1333
Pucallpa,Peru,-8.3833,-74.55
Irbid,Jordan,32.55,35.85
Sahāranpur,India,29.964,77.546
Willemstad,Curaçao,12.108,-68.935
Fuchū,Japan,35.6689,139.4776
Minato,Japan,35.6581,139.7514
Warangal,India,17.9689,79.5941
Betim,Brazil,-19.9678,-44.1978
Karşıyaka,Turkey,38.4594,27.1153
Salinas,United States,36.6883,-121.6317
Hobart,Australia,-42.8806,147.325
Norwich,United Kingdom,52.6286,1.2928
Luton,United Kingdom,51.8783,-0.4147
Bacolod,Philippines,10.6765,122.9509
Kyŏngju,"Korea, South",35.85,129.2167
Fredericksburg,United States,38.2992,-77.4872
Shiliguri,India,26.71,88.43
Lengshuijiang,China,27.686,111.436
Nizhniy Tagil,Russia,57.9167,59.9667
Panshi,China,42.95,126.0667
Rennes,France,48.1147,-1.6794
Maringá,Brazil,-23.4,-51.9167
Kakogawachō-honmachi,Japan,34.75,134.8333
Ontario,United States,34.0393,-117.6064
Manizales,Colombia,5.1,-75.55
Elk Grove,United States,38.4161,-121.3842
Richmond,Canada,49.1667,-123.1333
Vladimir,Russia,56.1286,40.4058
Katowice,Poland,50.2625,19.0217
Hiratsuka,Japan,35.3167,139.35
Gainesville,United States,34.2902,-83.8294
Gainesville,United States,29.6804,-82.3459
Sarıyer,Turkey,41.1669,29.0572
Arkhangelsk,Russia,64.5333,40.5333
Nakhon Ratchasima,Thailand,14.975,102.1
Meram,Turkey,37.8364,32.4383
Cocody,Côte d’Ivoire,5.35,-3.9667
Huichang,China,34.9073,112.7914
Taraz,Kazakhstan,42.9,71.3667
Beersheba,Israel,31.2589,34.7997
Jinshan,China,25.1462,102.0723
Cary,United States,35.7819,-78.8195
Chita,Russia,52.05,113.4667
Rancho Cucamonga,United States,34.1247,-117.5667
Salem,India,11.65,78.15
A Coruña,Spain,43.365,-8.41
Minatitlán,Mexico,17.9833,-94.55
Viña del Mar,Chile,-33.0244,-71.5517
San Miguelito,Panama,9.033,-79.5
Oceanside,United States,33.2247,-117.3083
Tokushima,Japan,34.0667,134.55
Oulu,Finland,65.0142,25.4719
Yazd,Iran,31.8822,54.3397
Ardabīl,Iran,38.2425,48.29
Kassel,Germany,51.3158,9.4979
Anguo,China,38.418,115.327
Jundiaí,Brazil,-23.1858,-46.8839
Villahermosa,Mexico,17.9892,-92.9281
Bandar ‘Abbās,Iran,27.1961,56.2878
Shinozaki,Japan,33.9578,130.9414
Nanqiao,China,30.9167,121.4547
Lochau,Austria,47.5167,9.75
Ţūkh,Egypt,30.3539,31.2007
Milton Keynes,United Kingdom,52.04,-0.76
Limassol,Cyprus,34.6747,33.0442
Charleroi,Belgium,50.4,4.4333
Anápolis,Brazil,-16.3339,-48.9519
Hakodate,Japan,41.7686,140.7289
Wudalianchi,China,48.75,126.1667
Shuanghe,China,30.3746,106.7903
Solihull,United Kingdom,52.413,-1.778
Garden Grove,United States,33.7787,-117.9601
Corrientes,Argentina,-27.4833,-58.8167
Roodepoort,South Africa,-26.1625,27.8725
Akhmīm,Egypt,26.5667,31.75
Sōka,Japan,35.8254,139.8053
Lancaster,United States,40.042,-76.3012
Lancaster,United States,34.6935,-118.1753
Semey,Kazakhstan,50.4333,80.2667
Islington,United Kingdom,51.544,-0.1027
Ciudad Bolívar,Venezuela,8.1219,-63.55
Chiayi,Taiwan,23.48,120.4497
Al Manşūrah,Egypt,31.05,31.3833
Kochi,India,9.9312,76.2673
Kochi,India,9.9312,76.2673
Arāk,Iran,34.0914,49.6933
Hemet,United States,33.7341,-116.9969
Cusco,Peru,-13.525,-71.9722
Pembroke Pines,United States,26.0128,-80.3382
Yong’an,China,25.942,117.365
Odense,Denmark,55.3958,10.3886
Dhūlia,India,20.8997,74.7697
Ḩalwān,Egypt,29.8453,31.3333
Beylikdüzü,Turkey,41.0011,28.6419
Linxia Chengguanzhen,China,35.6047,103.2422
Panama City,United States,30.1995,-85.6003
Pelotas,Brazil,-31.7719,-52.3425
Gorakhpur,India,26.7637,83.4039
Villa Nueva,Guatemala,14.5269,-90.5875
Vallejo,United States,38.1125,-122.2342
Diadema,Brazil,-23.6861,-46.6106
Hongzhai,China,34.9857,104.5446
Mbandaka,Congo (Kinshasa),0.0478,18.2558
Richmond Hill,Canada,43.8667,-79.4333
Iloilo,Philippines,10.72,122.57
Manchester,United States,42.9848,-71.4447
East London,South Africa,-33.0175,27.9047
Hargeysa,Somalia,9.5631,44.0675
Baidoa,Somalia,3.1167,43.65
Medford,United States,42.3372,-122.854
Guntūr,India,16.3008,80.4428
Bhāngar,India,22.58,88.42
Yamagata,Japan,38.2554,140.3396
Aguadilla,Puerto Rico,18.4382,-67.1537
Mauldin,United States,34.7821,-82.3032
Breda,Netherlands,51.5889,4.7758
Tsukuba-kenkyūgakuen-toshi,Japan,36.0835,140.0764
Namangan,Uzbekistan,41.0011,71.6683
Elche,Spain,38.2669,-0.6983
Yakeshi,China,49.286,120.712
Sultanbeyli,Turkey,40.9683,29.2617
Pavlodar,Kazakhstan,52.3,76.95
Santa Cruz,United States,36.9789,-122.0346
Gómez Palacio,Mexico,25.5611,-103.4983
Yingmen,China,39.9487,97.4395
Huambo,Angola,-12.7767,15.7347
Bouaké,Côte d’Ivoire,7.6833,-5.0167
Palmdale,United States,34.5944,-118.1057
Norwich,United States,41.5495,-72.0882
Carapicuíba,Brazil,-23.5192,-46.8358
Muskegon,United States,43.2281,-86.2562
Narela,India,28.8527,77.0929
Aberdeen,United Kingdom,57.15,-2.11
Petrolina,Brazil,-9.3825,-40.5022
Liège,Belgium,50.6397,5.5706
Fuji,Japan,35.1613,138.6763
Leesburg,United States,28.7672,-81.8962
Abhā,Saudi Arabia,18.2169,42.5053
Kāshān,Iran,33.9825,51.4325
Karaikandi,India,24.8309,92.6143
Jining,China,35.4151,116.5871
Jining,China,41.03,113.08
Al Mijlad,Sudan,11.0339,27.74
Yoshiichō-shimobaru,Japan,33.18,129.715
Cuernavaca,Mexico,18.9186,-99.2342
Northcote,New Zealand,-36.8019,174.7494
Callao,Peru,-12.0522,-77.1392
Sasebo,Japan,33.18,129.715
Chigasaki,Japan,35.3333,139.4
Katlehong,South Africa,-26.3333,28.15
Podgorica,Montenegro,42.4414,19.2628
Paramaribo,Suriname,5.8522,-55.2039
High Point,United States,35.991,-79.9937
Buenaventura,Colombia,3.8772,-77.0267
Tuscaloosa,United States,33.2348,-87.5268
Bắc Ninh,Vietnam,21.1833,106.05
Mushin,Nigeria,6.5333,3.35
Bunkyō-ku,Japan,35.7167,139.75
Visalia,United States,36.3276,-119.3269
Ba‘qūbah,Iraq,33.75,44.6333
Yato,Japan,35.4833,139.45
Matsumoto,Japan,36.238,137.972
Caruaru,Brazil,-8.2828,-35.9758
Messina,Italy,38.1936,15.5542
Volzhskiy,Russia,48.8056,44.7417
Bulawayo,Zimbabwe,-20.17,28.58
Székesfehérvár,Hungary,47.1956,18.4089
Al Maḩallah al Kubrá,Egypt,30.9686,31.1636
Marysville,United States,48.0809,-122.1561
Granada,Spain,37.1781,-3.6008
Holon,Israel,32.0167,34.7667
Soledad de Graciano Sánchez,Mexico,22.1833,-100.9333
Chōfugaoka,Japan,35.6506,139.5407
Nijmegen,Netherlands,51.8475,5.8625
Bené Beraq,Israel,32.0833,34.8333
Bhāvnagar,India,21.76,72.15
Geelong,Australia,-38.15,144.35
Itaquaquecetuba,Brazil,-23.4864,-46.3486
Bukavu,Congo (Kinshasa),-2.5,28.8667
Sevastopol,Ukraine,44.605,33.5225
Ciudad Obregón,Mexico,27.4939,-109.9389
Cluj-Napoca,Romania,46.7667,23.5833
Peterborough,United Kingdom,52.5661,-0.2364
Hagen,Germany,51.3667,7.4833
Tangdong,China,25.973,113.231
Şabyā,Saudi Arabia,17.1489,42.6258
Merced,United States,37.3057,-120.4779
Hayward,United States,37.6328,-122.0766
Juba,South Sudan,4.85,31.6
Noida,India,28.57,77.32
Lafayette,United States,30.2082,-92.0325
Lafayette,United States,40.3991,-86.8593
Shibuya-ku,Japan,35.6594,139.7006
Salamanca,Mexico,20.5703,-101.1972
Tsing Yi Town,Hong Kong,22.3456,114.1
Muntinlupa City,Philippines,14.38,121.05
Hải Dương,Vietnam,20.9397,106.3306
Yingzhong,China,32.237,119.815
Smolensk,Russia,54.7828,32.0453
Springfield,United States,42.1155,-72.5395
Springfield,United States,37.1943,-93.2916
Springfield,United States,39.7709,-89.654
Licheng,China,31.4306,119.4788
Licheng,China,24.5,110.4
Croydon,United Kingdom,51.3727,-0.1099
Badalona,Spain,41.4489,2.2461
Pasto,Colombia,1.2078,-77.2772
Saransk,Russia,54.1833,45.1833
City of Calamba,Philippines,14.22,121.17
Owerri,Nigeria,5.485,7.035
Lembok,Indonesia,-8.565,116.351
Tarrasa,Spain,41.57,2.013
Hangu,China,39.232,117.777
Constantine,Algeria,36.35,6.6
Cherepovets,Russia,59.1167,37.9
Saga,Japan,33.2667,130.3
Santa Teresa del Tuy,Venezuela,10.2333,-66.6639
Corona,United States,33.8616,-117.5649
Bauru,Brazil,-22.315,-49.0608
Paterson,United States,40.9147,-74.1624
Khartoum North,Sudan,15.6333,32.6333
Potsdam,Germany,52.4,13.0667
San Bernardo,Chile,-33.5833,-70.7
Bamiantong,China,44.9167,130.5167
Bhilai,India,21.21,81.38
Rio Branco,Brazil,-9.9747,-67.81
Mangalore,India,12.8681,74.8425
Shibīn al Qanāţir,Egypt,30.3133,31.3214
Guasavito,Mexico,25.5744,-108.4706
Port-Bouët,Côte d’Ivoire,5.2667,-3.9
Burlington,Canada,43.3167,-79.8
Macon,United States,32.8065,-83.6974
Tehuacán,Mexico,18.4617,-97.3928
Binghamton,United States,42.1014,-75.9093
Coatzacoalcos,Mexico,18.15,-94.4333
Mykolaiv,Ukraine,46.975,31.995
Abū Ḩummuş,Egypt,31.1006,30.3128
Yeşilyurt,Turkey,38.2961,38.2489
Kasukabe,Japan,35.9753,139.7523
Lakewood,United States,39.6977,-105.1172
Lakewood,United States,40.0763,-74.2031
Ulanhot,China,46.0722,122.0933
Townsville,Australia,-19.25,146.8167
Yunzhong,China,39.8279,113.1
Vologda,Russia,59.2167,39.9
Meknès,Morocco,33.895,-5.5547
Bournemouth,United Kingdom,50.72,-1.88
Blumenau,Brazil,-26.9333,-49.05
Yakutsk,Russia,62.03,129.73
Abeokuta,Nigeria,7.1608,3.3483
Bihtā,India,25.5619,84.87
Neya,Japan,34.7667,135.6333
St. John's,Canada,47.4817,-52.7971
Kansas City,United States,39.1235,-94.7443
Kansas City,United States,39.1238,-94.5541
Khon Kaen,Thailand,16.4333,102.8333
Valparaíso,Chile,-33.0461,-71.6197
Ash Shīḩānīyah,Qatar,25.3722,51.2047
Odessa,United States,31.8801,-102.3448
Maturín,Venezuela,9.75,-63.183
Papeete,French Polynesia,-17.5334,-149.5667
Wŏnsan,"Korea, North",39.1475,127.4461
Al Khubar,Saudi Arabia,26.2833,50.2
Ageoshimo,Japan,35.9774,139.5932
Sunnyvale,United States,37.3836,-122.0255
Basildon,United Kingdom,51.58,0.49
Vinh,Vietnam,18.6667,105.6667
Ponta Grossa,Brazil,-25.0994,-50.1583
Saarbrücken,Germany,49.2333,7.0
Kurgan,Russia,55.4667,65.35
Petrel,Spain,38.4789,-0.7967
Binxian,China,35.0542,108.0814
Kaiyuan,China,42.546,124.038
Kaiyuan,China,36.0193,113.86
Kaiyuan,China,23.7111,103.2461
Pointe-à-Pitre,Guadeloupe,16.2411,-61.5331
Sabadell,Spain,41.5486,2.1075
Cartagena,Spain,37.6,-0.9833
New Bedford,United States,41.6697,-70.9428
Padova,Italy,45.4167,11.8667
Lausanne,Switzerland,46.5198,6.6335
Changhua,Taiwan,24.0667,120.5333
Afyonkarahisar,Turkey,38.7578,30.5386
Hamm,Germany,51.6667,7.8167
Oviedo,Spain,43.36,-5.845
Caucaia,Brazil,-3.7167,-38.65
Vladikavkaz,Russia,43.04,44.6775
Ōta,Japan,36.2911,139.3754
Iaşi,Romania,47.1622,27.5889
Mokpo,"Korea, South",34.7589,126.38
Takarazuka,Japan,34.8114,135.3406
Hollywood,United States,26.0293,-80.1679
Cuttack,India,20.5236,85.7881
Atsugichō,Japan,35.4333,139.3667
Osan,"Korea, South",37.1498,127.0771
Salīmpur,India,26.3,83.9167
Zalantun,China,48.027,122.708
South Lyon,United States,42.4614,-83.6526
Bobo-Dioulasso,Burkina Faso,11.1833,-4.2833
Hat Yai,Thailand,7.0167,100.4667
Kelowna,Canada,49.8881,-119.4956
Hachinohe,Japan,40.5123,141.4884
Franca,Brazil,-20.5389,-47.4008
Chalco,Mexico,19.2647,-98.8975
Orël,Russia,52.9686,36.0694
Malanje,Angola,-9.5333,16.35
Battalgazi,Turkey,38.4228,38.3656
Raurkela,India,22.2492,84.8828
Podolsk,Russia,55.4311,37.5456
Escondido,United States,33.1348,-117.0723
Lake Charles,United States,30.201,-93.2111
Bahawalpur,Pakistan,29.3956,71.6836
Ciudad Benito Juárez,Mexico,25.65,-100.0833
Tumkūr,India,13.34,77.1
Gdynia,Poland,54.5175,18.54
Olinda,Brazil,-8.0,-34.8833
Praia Grande,Brazil,-24.0061,-46.4028
Ikeja,Nigeria,6.6,3.35
Xiaoli,China,22.6721,113.2509
Pasadena,United States,34.1597,-118.139
Pasadena,United States,29.6575,-95.1498
Bellevue,United States,47.5951,-122.1535
Huancayo,Peru,-12.0667,-75.2167
Az Zarqā’,Jordan,32.0833,36.1
Jerez de la Frontera,Spain,36.6817,-6.1378
Iquitos,Peru,-3.75,-73.25
Cariacica,Brazil,-20.2639,-40.42
Joliet,United States,41.5188,-88.1499
Champaign,United States,40.1142,-88.2737
Pécs,Hungary,46.0711,18.2331
Cascavel,Brazil,-24.9556,-53.4553
Ciudad Santa Catarina,Mexico,25.6833,-100.45
Arnhem,Netherlands,51.9833,5.9167
Gangneung,"Korea, South",37.75,128.9
Sinŭiju,"Korea, North",40.1,124.4
Canoas,Brazil,-29.92,-51.18
Pomona,United States,34.0585,-117.7626
Ajdābiyā,Libya,30.7556,20.2253
Kupang,Indonesia,-10.1702,123.6077
Fairfield,United States,38.2583,-122.0335
Mariupol,Ukraine,47.0958,37.5494
Mesquite,United States,32.7602,-96.5865
Elkhart,United States,41.6916,-85.9627
Jiayuguan,China,39.7732,98.2882
Naperville,United States,41.748,-88.1659
Cosenza,Italy,39.3,16.25
Ich’ŏn,"Korea, South",37.2667,127.4333
St. George,United States,37.0758,-113.5752
Roseville,United States,38.7703,-121.3196
Arakawa,Japan,35.7333,139.7833
Haarlem,Netherlands,52.3833,4.6333
Ramapo,United States,41.1404,-74.1072
Akure,Nigeria,7.25,5.195
Constanţa,Romania,44.1667,28.6333
Ilorin,Nigeria,8.5,4.55
Datang,China,22.9406,113.9436
Kisangani,Congo (Kinshasa),0.5167,25.2
Longquan,China,25.9106,114.786
Longquan,China,28.0667,119.1333
Güngören,Turkey,41.0225,28.8717
Topeka,United States,39.0346,-95.6955
Chungju,"Korea, South",36.9667,127.95
Oujda-Angad,Morocco,34.6867,-1.9114
Manado Light,Indonesia,1.4931,124.8413
Kluang,Malaysia,2.0336,103.3194
Ludwigshafen,Germany,49.4811,8.4353
Matola,Mozambique,-25.9667,32.4667
Móstoles,Spain,40.3333,-3.8667
Ar Ruşayfah,Jordan,32.0178,36.0464
Temuco,Chile,-38.7333,-72.6667
Trieste,Italy,45.6503,13.7703
San Juan del Río,Mexico,20.3833,-99.9833
Paulista,Brazil,-7.9408,-34.8728
Burlington,United States,44.4876,-73.2316
Burlington,United States,36.076,-79.4685
Neiva,Colombia,2.9345,-75.2809
Tanch’ŏn,"Korea, North",40.458,128.911
Andijon,Uzbekistan,40.7833,72.3333
Pristina,Kosovo,42.6633,21.1622
Vitória da Conquista,Brazil,-14.8658,-40.8389
Győr,Hungary,47.6842,17.6344
Oaxaca,Mexico,17.0606,-96.7253
Tân Uyên,Vietnam,11.0508,106.7636
Maidstone,United Kingdom,51.272,0.529
Warner Robins,United States,32.5961,-83.6527
Khŭjand,Tajikistan,40.2833,69.6333
Eslāmshahr,Iran,35.5317,51.2247
Bahía Blanca,Argentina,-38.7167,-62.2667
Samarkand,Uzbekistan,39.6547,66.9758
Holguín,Cuba,20.8869,-76.2592
Oldenburg,Germany,53.1439,8.2139
Lapu-Lapu City,Philippines,10.3127,123.9488
Ciudad General Escobedo,Mexico,25.7933,-100.1583
Parma,Italy,44.8015,10.328
Imus,Philippines,14.4297,120.9367
Mülheim,Germany,51.4275,6.8825
Brescia,Italy,45.5417,10.2167
Tenkāsi,India,8.9564,77.3152
Enschede,Netherlands,52.2225,6.8925
Los Mochis,Mexico,25.7835,-108.9937
Pachuca,Mexico,20.1,-98.75
Dehra Dūn,India,30.345,78.029
Prato,Italy,43.88,11.0983
Groznyy,Russia,43.3125,45.6986
Uberaba,Brazil,-19.7478,-47.9319
Surprise,United States,33.6815,-112.4515
Tampico,Mexico,22.2553,-97.8686
Isesaki,Japan,36.3114,139.1968
Yonghetun,China,39.9131,116.6458
Torrance,United States,33.8346,-118.3416
Sejong,"Korea, South",36.487,127.2822
Pamplona,Spain,42.8167,-1.65
Sherbrooke,Canada,45.4,-71.9
Kure,Japan,34.2492,132.5658
Taitō,Japan,35.7125,139.78
Tambov,Russia,52.7231,41.4539
Pilar,Argentina,-34.45,-58.9167
Sakarya,Turkey,40.7833,30.4
Zhubei,Taiwan,24.8333,121.0119
İnegöl,Turkey,40.0806,29.5097
Kottayam,India,9.5916,76.5222
Port Said,Egypt,31.2625,32.3061
’s-Hertogenbosch,Netherlands,51.6833,5.3
Amersfoort,Netherlands,52.15,5.3833
Coacalco,Mexico,19.6333,-99.0931
Sakākā,Saudi Arabia,29.9697,40.2
Qianzhou,China,28.276,109.712
Santa Maria,United States,34.9333,-120.4431
Muar,Malaysia,2.05,102.5667
Zaanstad,Netherlands,52.4333,4.8167
Yakou,China,33.295,113.5269
Mymensingh,Bangladesh,24.7539,90.4031
Houma,United States,29.58,-90.7059
Çorlu,Turkey,41.15,27.8
Santarém,Brazil,-2.43,-54.72
Košice,Slovakia,48.7167,21.25
Durgāpur,India,23.55,87.32
Szeged,Hungary,46.255,20.145
Columbia,United States,34.0378,-80.9036
Columbia,United States,38.9472,-92.3268
Pasir Gudang,Malaysia,1.5028,103.9356
Uppsala,Sweden,59.8581,17.6447
Al Fayyūm,Egypt,29.3084,30.8441
Fullerton,United States,33.8841,-117.9279
Qal‘at Bīshah,Saudi Arabia,20.0,42.6
São Vicente,Brazil,-23.9633,-46.3922
Ribeirão das Neves,Brazil,-19.7669,-44.0869
Hamilton,New Zealand,-37.7833,175.2833
Nyíregyháza,Hungary,47.9531,21.7271
Olathe,United States,38.8833,-94.82
Āsansol,India,23.68,86.99
Vitsyebsk,Belarus,55.1917,30.2056
Osnabrück,Germany,52.2833,8.05
Kyaukse,Burma,21.6131,96.1303
Resistencia,Argentina,-27.4514,-58.9867
Bokaro Steel City,India,23.67,86.15
Suez,Egypt,29.9667,32.55
São José dos Pinhais,Brazil,-25.535,-49.2058
Hrodna,Belarus,53.6667,23.8333
Thornton,United States,39.9197,-104.9438
Toulon,France,43.1258,5.9306
Nishitōkyō,Japan,35.7256,139.5383
Kolhāpur,India,16.6917,74.2333
Almería,Spain,36.8403,-2.4681
Abū Ţisht,Egypt,26.1183,32.0953
Timişoara,Romania,45.7597,21.23
Nava Raipur,India,21.161,81.787
Greeley,United States,40.4152,-104.7706
Beaumont,United States,30.0849,-94.1451
Las Cruces,United States,32.3265,-106.7893
Reims,France,49.2628,4.0347
Leverkusen,Germany,51.0333,6.9833
Al Fashn,Egypt,28.8227,30.8992
Puerto Plata,Dominican Republic,19.8,-70.6833
Midland,United States,32.0243,-102.1147
Cascais,Portugal,38.7,-9.4167
Metairie,United States,29.9977,-90.178
Taranto,Italy,40.4711,17.2431
Dexing,China,28.9306,117.5947
Sterlitamak,Russia,53.6333,55.95
Bibā,Egypt,28.9218,30.9844
Ilford,United Kingdom,51.5575,0.0858
Mahilyow,Belarus,53.9167,30.35
Huixquilucan,Mexico,19.3611,-99.3508
Palmira,Colombia,3.5833,-76.25
Vitória,Brazil,-20.2889,-40.3083
Nizhnevartovsk,Russia,60.95,76.6
Sudbury,Canada,46.49,-81.01
Petrozavodsk,Russia,61.7833,34.3333
Luhansk,Ukraine,48.5678,39.3031
Alcalá de Henares,Spain,40.4667,-3.3667
Ajmer,India,26.4499,74.6399
West Valley City,United States,40.6886,-112.0123
Anseong,"Korea, South",37.0078,127.2797
Bandung,Indonesia,-6.912,107.6097
Orange,United States,33.8038,-117.8218
Nānded,India,19.15,77.3
Arnavutköy,Turkey,41.1856,28.7406
Warren,United States,42.4934,-83.027
Kostroma,Russia,57.7681,40.9269
Amrāvati,India,20.9258,77.7647
Bridgetown,Barbados,13.0975,-59.6167
Grand Junction,United States,39.0877,-108.5673
Hulin,China,45.7667,132.9333
Hong’an,China,47.21,123.61
Khayelitsha,South Africa,-34.0403,18.6778
Bayat,Turkey,40.5455,34.957
Tyler,United States,32.3184,-95.3062
Nellore,India,14.45,79.99
Heidelberg,Germany,49.4167,8.7167
Darmstadt,Germany,49.8722,8.6528
Matsue,Japan,35.4681,133.0486
Pasadena,United States,29.6575,-95.1498
Pasadena,United States,34.1597,-118.139
Warrington,United Kingdom,53.39,-2.59
Newcastle,Australia,-32.9167,151.75
Hampton,United States,37.0551,-76.363
Modena,Italy,44.6469,10.9256
Taubaté,Brazil,-23.025,-45.5556
Adıyaman,Turkey,37.7639,38.2778
Yachiyo,Japan,35.7224,140.0999
Kütahya,Turkey,39.4167,29.9833
Pingzhen,Taiwan,24.9439,121.2161
Port Louis,Mauritius,-20.1644,57.5042
Ad Dīwānīyah,Iraq,31.9892,44.9247
Bloomington,United States,40.4757,-88.9703
Nagareyama,Japan,35.8563,139.9029
Novorossiysk,Russia,44.7167,37.7833
Angeles City,Philippines,15.1472,120.5847
Barueri,Brazil,-23.5111,-46.8764
Solingen,Germany,51.1667,7.0833
Kaech’ŏn,"Korea, North",39.6986,125.9061
Elizabeth,United States,40.6658,-74.1913
Yogyakarta,Indonesia,-7.8014,110.3644
Saint-Étienne,France,45.4347,4.3903
Fuquan,China,26.6863,107.5204
Osmaniye,Turkey,37.075,36.25
Brest,Belarus,52.1347,23.6569
Huddersfield,United Kingdom,53.645,-1.7798
Stamford,United States,41.1039,-73.5585
Yuma,United States,32.5995,-114.5491
Sanandaj,Iran,35.3114,46.9961
Kent,United States,47.3887,-122.2128
Miramar,United States,25.9773,-80.3351
Huozhou,China,36.569,111.7551
Kibanseke Première,Congo (Kinshasa),-4.4419,15.395
Camagüey,Cuba,21.3839,-77.9075
Dispur,India,26.1397,91.7925
Tongchuanshi,China,35.08,109.03
Higashi-Hiroshima,Japan,34.4264,132.7433
Itami,Japan,34.7833,135.4
Coeur d'Alene,United States,47.704,-116.7936
Leganés,Spain,40.3281,-3.7644
Gulbarga,India,17.329,76.825
Marikina City,Philippines,14.65,121.1
As Sīb,Oman,23.6703,58.1891
Kodaira,Japan,35.7285,139.4774
Posadas,Argentina,-27.3667,-55.9
Guarujá,Brazil,-23.9936,-46.2564
Homs,Syria,34.7308,36.7094
Aalborg,Denmark,57.05,9.9167
Lakewood,United States,39.6977,-105.1172
Lakewood,United States,40.0763,-74.2031
Coral Springs,United States,26.2702,-80.2591
Sterling Heights,United States,42.5809,-83.0305
Braşov,Romania,45.6667,25.6167
Regensburg,Germany,49.0167,12.0833
Salzburg,Austria,47.8,13.045
Herne,Germany,51.55,7.2167
Murmansk,Russia,68.9706,33.075
Zielona Góra,Poland,51.9333,15.5
Bīkaner,India,28.0181,73.3169
Ramat Gan,Israel,32.07,34.8236
Southend,United Kingdom,51.55,0.71
Suzuka,Japan,34.882,136.5842
Yoshkar-Ola,Russia,56.65,47.8833
Donostia,Spain,43.3214,-1.9856
Fuenlabrada,Spain,40.2833,-3.8
Yuba City,United States,39.1357,-121.6383
Kaduna,Nigeria,10.5167,7.4333
General Trias,Philippines,14.38,120.88
Aydın,Turkey,37.8481,27.8453
Newport,United Kingdom,51.5886,-2.9978
Kamirenjaku,Japan,35.6836,139.5595
Suva,Fiji,-18.1416,178.4419
Banjul,"Gambia, The",13.4531,-16.5775
Jayapura,Indonesia,-2.533,140.717
Cuenca,Ecuador,-2.8974,-79.0045
Suzano,Brazil,-23.5428,-46.3108
Isparta,Turkey,37.7647,30.5567
Nalchik,Russia,43.4833,43.6167
Yakima,United States,46.5923,-120.5496
Siverek,Turkey,37.75,39.3167
Engels,Russia,51.5017,46.1222
Antalya,Turkey,36.8874,30.7075
Carrollton,United States,32.989,-96.8999
Xingsha,China,28.2573,113.1234
Racine,United States,42.7274,-87.8135
Loures,Portugal,38.8333,-9.1667
Qazvīn,Iran,36.2894,50.0086
Cairns,Australia,-16.92,145.78
Kumagaya,Japan,36.1474,139.3886
Craiova,Romania,44.3333,23.8167
Nāgercoil,India,8.175,77.4306
Johnson City,United States,36.3406,-82.3806
Agartala,India,23.8314,91.2869
Pingtung,Taiwan,22.6761,120.4942
Billings,United States,45.7891,-108.5526
Paderborn,Germany,51.7181,8.7542
Mataram,Indonesia,-8.5833,116.1167
Getafe,Spain,40.3047,-3.7311
Częstochowa,Poland,50.8,19.1167
Sariwŏn,"Korea, North",38.5064,125.7597
Nakuru,Kenya,-0.3,36.0667
Tuzla,Turkey,40.8161,29.3006
Neuss,Germany,51.2,6.7
Rodriguez,Philippines,14.72,121.12
Sargodha,Pakistan,32.0836,72.6711
Iowa City,United States,41.6559,-91.5303
Las Condes,Chile,-33.4117,-70.55
Shaowu,China,27.3403,117.4925
Yamaguchi,Japan,34.1781,131.4739
Palmas,Brazil,-10.1844,-48.3336
Enfield,United Kingdom,51.6522,-0.0808
Le Havre,France,49.49,0.1
Abomey-Calavi,Benin,6.4486,2.3556
Dover,United States,39.161,-75.5202
Loni,India,28.75,77.28
Hino,Japan,35.6713,139.3951
‘Unayzah,Saudi Arabia,26.0906,43.9875
Bellingham,United States,48.7548,-122.469
Pasay City,Philippines,14.55,121.0
Ujjain,India,23.17,75.79
Charleston,United States,32.8168,-79.9687
Charleston,United States,38.3484,-81.6322
Aksaray,Turkey,38.3742,34.0289
Nogales,Mexico,31.3,-110.9333
Barrie,Canada,44.3711,-79.6769
Amherst,United States,43.0117,-78.757
Bafoussam,Cameroon,5.4667,10.4167
Garoua,Cameroon,9.3,13.4
Kızıltepe,Turkey,37.1939,40.5861
Kenitra,Morocco,34.25,-6.5833
Sidi Bouzid,Tunisia,35.0381,9.4858
Camaçari,Brazil,-12.6978,-38.3239
Çekme,Turkey,41.0369,29.1786
Chon Buri,Thailand,13.3611,100.985
Irákleio,Greece,35.3403,25.1344
Az Zubayr,Iraq,30.3833,47.7
Bijiao,China,22.9253,113.2067
İskenderun,Turkey,36.5817,36.165
Odawara,Japan,35.25,139.15
Lynchburg,United States,37.4003,-79.1909
Anjōmachi,Japan,34.9587,137.0803
Benguela,Angola,-12.55,13.4167
Abbotsford,Canada,49.05,-122.3167
Bunia,Congo (Kinshasa),1.5667,30.25
Bhīlwāra,India,25.35,74.63
Guri,"Korea, South",37.6,127.15
Khimki,Russia,55.8892,37.445
Kishiwada,Japan,34.4667,135.3667
Santa Clara,United States,37.3646,-121.968
Đà Lạt,Vietnam,11.9417,108.4383
Numazu,Japan,35.0956,138.8634
Osogbo,Nigeria,7.7667,4.5667
Sumqayıt,Azerbaijan,40.5897,49.6686
Heroica Nogales,Mexico,31.3186,-110.9458
Tottori,Japan,35.5,134.2333
Jhānsi,India,25.4486,78.5696
Jōetsu,Japan,37.1479,138.2361
Masan,"Korea, South",35.1833,128.55
Norman,United States,35.2335,-97.3471
Quilmes,Argentina,-34.7167,-58.2667
Kōfu,Japan,35.6621,138.5682
Greenville,United States,35.5943,-77.376
Greenville,United States,34.8354,-82.3646
Simi Valley,United States,34.2663,-118.749
Ulhāsnagar,India,19.22,73.15
Male,Maldives,4.1753,73.5089
Reggio di Calabria,Italy,38.1114,15.6619
Vellore,India,12.9165,79.1325
Apeldoorn,Netherlands,52.2167,5.9667
Büyükçekmece,Turkey,41.02,28.5775
Zanjān,Iran,36.6789,48.5056
Jammu,India,32.73,74.87
Fort Smith,United States,35.3495,-94.3695
Beykoz,Turkey,41.1342,29.0922
Agadir,Morocco,30.4333,-9.6
Abilene,United States,32.4543,-99.7384
Oxford,United Kingdom,51.75,-1.25
Kristiansand,Norway,58.1472,7.9972
Reggio Emilia,Italy,44.7,10.6333
New Delhi,India,28.6139,77.2089
Ipswich,United Kingdom,52.0594,1.1556
Chak Forty-one,Pakistan,31.0167,73.85
Darwin,Australia,-12.4381,130.8411
Toyokawa,Japan,34.8268,137.3759
Mandaluyong City,Philippines,14.58,121.03
Talatona,Angola,-8.9167,13.1833
Belas,Angola,-8.9983,13.265
Lévis,Canada,46.8,-71.1833
Enugu,Nigeria,6.4528,7.5111
Purnea,India,25.778,87.476
Dijon,France,47.3167,5.0167
Lewisville,United States,33.0454,-96.9815
Taganrog,Russia,47.2167,38.9167
Komsomol’sk-na-Amure,Russia,50.5667,137.0
Coquitlam,Canada,49.2839,-122.7919
Pearland,United States,29.5581,-95.3218
Lehigh Acres,United States,26.612,-81.6388
Castellón de la Plana,Spain,39.9831,-0.0331
Cilegon,Indonesia,-6.0027,106.0112
Gəncə,Azerbaijan,40.6828,46.3606
Kenosha,United States,42.5865,-87.8773
Bayamón,Puerto Rico,18.3794,-66.1635
Harrow,United Kingdom,51.5836,-0.3464
Radom,Poland,51.4036,21.1567
Thanh Hóa,Vietnam,19.8075,105.7764
Várzea Grande,Brazil,-15.65,-56.1333
Phatthaya,Thailand,12.9357,100.889
Nha Trang,Vietnam,12.245,109.1917
Grenoble,France,45.1715,5.7224
Tachikawa,Japan,35.6942,139.4197
Seaside,United States,36.6224,-121.8199
Angers,France,47.4736,-0.5542
Juazeiro do Norte,Brazil,-7.2,-39.3333
Düzce,Turkey,40.8417,31.1583
Burlington,United States,44.4876,-73.2316
Burlington,United States,36.076,-79.4685
Dundee,United Kingdom,56.462,-2.9707
Huayin,China,34.5833,110.1
Si Racha,Thailand,13.174,100.93
Villeurbanne,France,45.7667,4.8803
Arvada,United States,39.832,-105.151
Burgos,Spain,42.35,-3.7067
Foz do Iguaçu,Brazil,-25.54,-54.5875
Fontibón,Colombia,4.6786,-74.1411
Belgaum,India,15.85,74.5
Vinnytsia,Ukraine,49.2333,28.4833
Santo Domingo de los Colorados,Ecuador,-0.2542,-79.1719
Plzeň,Czechia,49.7475,13.3775
Galaţi,Romania,45.4233,28.0425
Uji,Japan,34.8844,135.7997
Syktyvkar,Russia,61.6667,50.8167
Palu,Indonesia,-0.895,119.8594
Türkistan,Kazakhstan,43.3019,68.2692
Waldorf,United States,38.6085,-76.9194
Khorramābād,Iran,33.4875,48.3561
Cumaná,Venezuela,10.4564,-64.1675
Campeche,Mexico,19.85,-90.5306
Santa Rosa,Philippines,14.32,121.12
Independence,United States,39.0871,-94.3501
Albacete,Spain,38.9956,-1.8558
Tarsus,Turkey,36.9165,34.8951
Sawrān,Iraq,36.6606,44.5508
Toruń,Poland,53.0222,18.6111
Usme,Colombia,4.4464,-74.1522
Rochester,United States,44.0154,-92.478
Rochester,United States,43.168,-77.6162
Carmen,Mexico,18.6431,-91.8306
Tauranga,New Zealand,-37.6833,176.1667
Santander,Spain,43.4628,-3.805
West Bromwich,United Kingdom,52.519,-1.995
Logan,United States,41.7399,-111.8422
Bauchi,Nigeria,10.3158,9.8442
Harlingen,United States,26.1916,-97.6977
Maţraḩ,Oman,23.6167,58.5667
Berkeley,United States,37.8722,-122.276
Saguenay,Canada,48.4167,-71.0667
Mālegaon,India,20.55,74.55
Jyväskylä,Finland,62.2417,25.7417
Alcorcón,Spain,40.35,-3.8333
Lokoja,Nigeria,7.8019,6.7442
Latakia,Syria,35.5167,35.7833
Gloucester,United Kingdom,51.8667,-2.25
Rancagua,Chile,-34.1667,-70.75
Guelph,Canada,43.55,-80.25
Jāmnagar,India,22.47,70.07
Paraná,Argentina,-31.7331,-60.5297
Clovis,United States,36.8278,-119.683
Seixal,Portugal,38.65,-9.1
Sŏsan,"Korea, South",36.7817,126.4522
Ḩamāh,Syria,35.1333,36.75
Rzeszów,Poland,50.0333,22.0
Round Rock,United States,30.527,-97.6642
Pueblo,United States,38.2701,-104.6114
Perugia,Italy,43.1122,12.3889
Poole,United Kingdom,50.7167,-1.9833
Temple,United States,31.1068,-97.3891
Petrópolis,Brazil,-22.505,-43.1789
Los Alcarrizos,Dominican Republic,18.5167,-70.0167
Biñan,Philippines,14.33,121.08
Bārdoli,India,21.12,73.12
Meridian,United States,43.6116,-116.3977
Jinshi,China,29.5,111.908
Ingolstadt,Germany,48.7631,11.425
Agege,Nigeria,6.6219,3.3258
Gaya,India,24.75,85.01
Narashino,Japan,35.6804,140.0265
Winterthur,Switzerland,47.4989,8.7286
Sosnowiec,Poland,50.2833,19.1333
Sylhet,Bangladesh,24.9,91.8667
Manzhouli,China,49.598,117.379
Randburg,South Africa,-26.0936,28.0064
Cibinong,Indonesia,-6.485,106.842
Merlo,Argentina,-34.6653,-58.7275
Birkenhead,United Kingdom,53.393,-3.014
Al Marāghah,Egypt,26.7,31.6
Braga,Portugal,41.5503,-8.42
Zwolle,Netherlands,52.5167,6.1
Yangmei,Taiwan,24.9167,121.15
Telford,United Kingdom,52.6766,-2.4469
Qyzylorda,Kazakhstan,44.85,65.5167
Duluth,United States,46.7756,-92.1393
Sakura,Japan,35.7167,140.2167
Nizhnekamsk,Russia,55.6333,51.8167
The Woodlands,United States,30.1738,-95.5134
Boulder,United States,40.0248,-105.2524
Richardson,United States,32.9716,-96.7093
Crato,Brazil,-7.4639,-63.04
Cambridge,United States,42.3759,-71.1185
Kamakurayama,Japan,35.3197,139.5525
Cotia,Brazil,-23.6042,-46.9194
Ţanţā,Egypt,30.7833,31.0
Ismailia,Egypt,30.5833,32.2667
Taboão da Serra,Brazil,-23.5328,-46.7994
Preston,United Kingdom,53.83,-2.735
Hitachi,Japan,36.5991,140.6515
York,United Kingdom,53.96,-1.08
Imperatriz,Brazil,-5.5333,-47.4833
West Palm Beach,United States,26.7469,-80.132
Al Qurayyāt,Saudi Arabia,31.3167,37.3667
Shakhty,Russia,47.7,40.2333
Carrefour,Haiti,18.5344,-72.4094
Ambattūr,India,13.1143,80.1548
Ordu,Turkey,40.9833,37.8833
Norrköping,Sweden,58.6,16.2
Port Arthur,United States,29.8554,-93.9264
Izumo,Japan,35.3669,132.7547
Sialkot City,Pakistan,32.4925,74.5311
Al Bājūr,Egypt,30.4333,31.0569
Beichengqu,China,40.437,113.11
East Los Angeles,United States,34.0326,-118.1691
Redding,United States,40.5698,-122.365
Santa Maria,Brazil,-29.6833,-53.8
Uşak,Turkey,38.6778,29.4042
Clearwater,United States,27.979,-82.7623
Monroe,United States,32.5185,-92.0774
Armenia,Colombia,4.53,-75.68
Middlesbrough,United Kingdom,54.5767,-1.2355
Utica,United States,43.0962,-75.2261
Sandvika,Norway,59.8833,10.5167
Popayán,Colombia,2.4542,-76.6092
Bade,Taiwan,24.9575,121.2989
St. Cloud,United States,45.534,-94.1718
Mandeville,United States,30.3751,-90.0904
Trois-Rivières,Canada,46.35,-72.55
Pocheon,"Korea, South",37.8947,127.2002
West Jordan,United States,40.6024,-112.0008
Kuala Terengganu,Malaysia,5.3292,103.1361
Nîmes,France,43.8383,4.3597
Smithtown,United States,40.8663,-73.2164
Monclova,Mexico,26.9103,-101.4222
Tomakomai,Japan,42.6333,141.6
Whitby,Canada,43.8833,-78.9417
Cambridge,Canada,43.3972,-80.3114
Jalgaon,India,21.004,75.568
Almada,Portugal,38.6803,-9.1583
Chimbote,Peru,-9.0745,-78.5936
Ravenna,Italy,44.4161,12.2017
Chhatarpur,India,24.55,79.3527
González Catán,Argentina,-34.7667,-58.6167
Urayasu,Japan,35.6539,139.9022
Blackpool,United Kingdom,53.8142,-3.0503
North Charleston,United States,32.9067,-80.0722
Aix-en-Provence,France,43.5263,5.4454
Ērer Sātā,Ethiopia,9.5667,41.3833
Bratsk,Russia,56.1167,101.6
Bengkulu,Indonesia,-3.7956,102.2592
Richmond,United States,37.5295,-77.4756
Clermont-Ferrand,France,45.7831,3.0824
Jalingo,Nigeria,8.9,11.3667
Westminster,United States,39.8837,-105.0624
Zhangping,China,25.2902,117.42
Saginaw,United States,43.4199,-83.9501
Chūō-ku,Japan,35.6667,139.7667
Kurnool,India,15.83,78.05
Dahūk,Iraq,36.8667,43.0
Nishio,Japan,34.83,137.0697
Kailua,United States,21.392,-157.7396
Dzerzhinsk,Russia,56.2333,43.45
Maseru,Lesotho,-29.31,27.48
Kielce,Poland,50.8742,20.6333
García,Mexico,25.8167,-100.5833
Brandon,United States,27.9367,-82.3
Kanata,Canada,45.3333,-75.9
Marabá,Brazil,-5.35,-49.1167
Matosinhos,Portugal,41.1833,-8.7
Carlsbad,United States,33.1246,-117.2834
Lowell,United States,42.6389,-71.3217
Atushi,China,39.7162,76.1684
Noginsk,Russia,64.4833,91.2333
Floridablanca,Colombia,7.2167,-73.0667
Sumaré,Brazil,-22.8219,-47.2669
Amadora,Portugal,38.7333,-9.2333
Oral,Kazakhstan,51.2225,51.3725
Zoetermeer,Netherlands,52.0667,4.5
Hirosaki,Japan,40.6031,140.4638
Orsk,Russia,51.2,58.5667
Sampaloc,Philippines,14.6031,121.0022
Oyama,Japan,36.3146,139.8002
Diaobingshancun,China,42.4667,123.5667
Gravataí,Brazil,-29.9333,-50.9833
Broken Arrow,United States,36.038,-95.7806
Elgin,United States,42.0383,-88.324
Awsīm,Egypt,30.1167,31.1333
Makiivka,Ukraine,48.0556,37.9611
Tétouan,Morocco,35.5667,-5.3667
Mossoró,Brazil,-5.1878,-37.3439
Mezitli,Turkey,36.75,34.5333
Stockport,United Kingdom,53.4083,-2.1494
Tacna,Peru,-18.0147,-70.2489
Formosa,Argentina,-26.1833,-58.1833
Taytay,Philippines,14.5692,121.1325
Itajaí,Brazil,-26.9,-48.6667
Uppsala,Sweden,59.8581,17.6447
Livorno,Italy,43.5519,10.3083
Leeuwarden,Netherlands,53.2,5.7833
Le Mans,France,48.0077,0.1984
Udaipur,India,24.58,73.68
Sarıçam,Turkey,37.0333,35.4167
Talā,Egypt,30.6801,30.9438
Wuyishan,China,27.7564,118.0353
Tarlac City,Philippines,15.4869,120.59
Ţalkhā,Egypt,31.0547,31.3756
Gresham,United States,45.5021,-122.4413
Shenmu,China,38.827,110.499
League City,United States,29.4874,-95.1087
Leiden,Netherlands,52.16,4.49
Simferopol,Ukraine,44.9519,34.1022
Niiza,Japan,35.7935,139.5653
Takaoka,Japan,36.7541,137.0257
Chishui,China,28.5904,105.6975
Schaarbeek,Belgium,50.8675,4.3736
Sibu,Malaysia,2.2878,111.8308
Fresnillo,Mexico,23.175,-102.8675
Downey,United States,33.9379,-118.1311
Kushiro,Japan,42.9833,144.3833
Iwata,Japan,34.7179,137.8515
Obihiro,Japan,42.9167,143.2
Peñalolén,Chile,-33.4833,-70.55
Touba,Senegal,14.8667,-15.8833
Volta Redonda,Brazil,-22.5228,-44.1039
Kolpino,Russia,59.7333,30.6
Yenişehir,Turkey,37.9333,40.2333
Ashqelon,Israel,31.6667,34.5667
Innsbruck,Austria,47.2683,11.3933
Burgas,Bulgaria,42.503,27.4702
Neuquén,Argentina,-38.9525,-68.0642
Bole,China,44.8539,82.0514
Oeiras,Portugal,38.6833,-9.3167
Ica,Peru,-14.0667,-75.7333
Waterloo,United States,42.4918,-92.3522
Abū Ḩulayfah,Kuwait,29.1322,48.1261
La Laguna,Spain,28.4853,-16.3167
Kecskemét,Hungary,46.9061,19.6897
Al Kūt,Iraq,32.4907,45.8304
Malabon,Philippines,14.66,120.96
Hadano,Japan,35.3667,139.2167
Blagoveshchensk,Russia,50.25,127.5333
Longquan,China,28.0667,119.1333
Longquan,China,25.9106,114.786
Murrieta,United States,33.5719,-117.1909
